name,address,disabled_man,disabled_woman,opentime,latitude,longitude,diaper,error_count
상천네트워크 시흥풀페이주유소 화장실,경기 시흥시 방산동 206-4,0,0,:~:,37.42664981,126.7722657,0,0
신천아이씨주유소 화장실,경기 시흥시 방산동 203-1,0,0,:~:,37.42791464,126.7740425,0,0
불성사 화장실,경기 안양시 동안구 비산동 46-9,0,0,:~:,37.43234417,126.9599345,0,0
시흥까치주유소 화장실,경기 시흥시 신천동 551-1,0,0,:~:,37.43616124,126.7743115,0,0
시흥주유소 화장실,경기 시흥시 신천동 892-4,0,0,:~:,37.42963046,126.7918616,0,0
미산주유소 화장실,경기 시흥시 미산동 251-1,0,0,:~:,37.42069597,126.7898167,0,0
안현주유소 화장실,경기 시흥시 안현동 184-3,0,0,:~:,37.43186346,126.8102361,0,0
시흥알찬주유소 화장실,경기 시흥시 안현동 172-1,0,0,:~:,37.43485893,126.8083077,0,0
KH에너지직영 KH삼성주유소 화장실,경기 시흥시 과림동 764-2,0,0,:~:,37.42745113,126.8360971,0,0
롯데제2주유소 화장실,경기 시흥시 과림동 678-1,0,0,:~:,37.430695,126.8362482,0,0
한양주유소 화장실,경기 시흥시 무지내동 36-5,0,0,:~:,37.42294317,126.8366221,0,0
석수체육공원 화장실,경기 안양시 만안구 석수동 251-1,0,0,:~:,37.42269855,126.9023188,0,0
안양주유소 화장실,경기 안양시 만안구 석수동 389-14,0,0,:~:,37.4294005,126.9047505,0,0
남서울주유소 화장실,경기 안양시 만안구 석수동 365-2,0,0,:~:,37.43367696,126.9028288,0,0
하나은행시흥남지점 개방화장실,서울 금천구 시흥동 967-1,0,0,:~:,37.43498573,126.9034328,0,0
석수동주유소 화장실,경기 안양시 만안구 석수동 259-1,0,0,:~:,37.42015085,126.9072657,0,0
남경주유소 화장실,경기 안양시 만안구 석수동 102-11,0,0,:~:,37.42093347,126.9079516,0,0
김천빌딩 화장실,경기 안양시 만안구 석수동 104-53,0,0,:~:,37.42053022,126.9084672,0,0
안양사 화장실,경기 안양시 만안구 석수동 242-3,0,0,:~:,37.42254865,126.923942,0,0
염불암 화장실,경기 안양시 만안구 석수동 241-52,0,0,:~:,37.42790346,126.9345749,0,0
삼막사 화장실,경기 안양시 만안구 석수동 241-54,0,0,:~:,37.4339194,126.9359572,0,0
과천서울대공원 화장실9,경기 과천시 막계동 632,0,0,:~:,37.42749148,127.0167979,0,0
서울대공원 화장실1,경기 과천시 막계동 산 61-4,0,0,:~:,37.42785161,127.018669,0,0
서울대공원 화장실4,경기 과천시 막계동 658-2,0,0,:~:,37.4267774,127.0198799,0,0
과천서울대공원 화장실8,경기 과천시 막계동 713-1,0,0,:~:,37.42358421,127.0197796,0,0
서울대공원 화장실5,경기 과천시 막계동 713-1,0,0,:~:,37.42358781,127.0197751,0,0
서울랜드 화장실,경기 과천시 막계동 889-23,0,0,:~:,37.43255117,127.0195424,0,0
과천서울대공원 화장실2,경기 과천시 막계동 산 61-4,0,0,:~:,37.42720608,127.021073,0,0
과천서울대공원 화장실3,경기 과천시 막계동 산 63-1,0,0,:~:,37.42508286,127.0232913,0,0
과천서울대공원 화장실6,경기 과천시 막계동 783,0,0,:~:,37.4215006,127.0223593,0,0
서울대공원 화장실7,경기 과천시 막계동 783,0,0,:~:,37.42152222,127.0223503,0,0
탄천 화장실,경기 성남시 수정구 둔전동 213-5,0,0,:~:,37.42833942,127.1178885,0,0
모란다목적공영주차장 제3화장실,경기 성남시 중원구 성남동 4931,0,0,:~:,37.42846289,127.1265668,0,0
모란다목적공영주차장 제1화장실,경기 성남시 중원구 성남동 4931,0,0,:~:,37.42904173,127.1278784,0,0
개방화장실 농협중앙회 모란지점,경기 성남시 중원구 성남동 4168,0,0,:~:,37.43160724,127.1284251,0,0
개방화장실 모란종합시장,경기 성남시 중원구 성남동 4214,0,0,:~:,37.43063515,127.1274925,0,0
모란다목적공영주차장 제2화장실,경기 성남시 중원구 성남동 4931,0,0,:~:,37.42808727,127.1273074,0,0
써미트빌딩 개방화장실,경기 성남시 수정구 수진동 4518,0,0,:~:,37.43426216,127.1295867,0,0
성모윌병원 개방화장실,경기 성남시 수정구 수진동 4624,0,0,:~:,37.43444739,127.1282853,0,0
개방화장실 평화빌딩,경기 성남시 중원구 하대원동 125-6,0,0,:~:,37.4300711,127.1447193,0,0
개방화장실 태연스카이빌,경기 성남시 중원구 하대원동 143-1,0,0,:~:,37.42875043,127.1488926,0,0
대원공원 화장실,경기 성남시 중원구 하대원동 537-26,0,0,:~:,37.43530656,127.1542479,0,0
개방화장실 스타우드프라자,경기 성남시 중원구 상대원동 5439-1,0,0,:~:,37.43287878,127.1613341,0,0
상대원프라자 개방화장실,경기 성남시 중원구 상대원동 2985-1,0,0,:~:,37.43597814,127.1587735,0,0
SK에너지 박미주유소 개방화장실,서울 금천구 시흥동 980,0,0,:~:,37.4371942,126.902431,0,0
대한주유소 화장실,경기 시흥시 신천동 83-65,0,0,:~:,37.43829661,126.7929992,0,0
개방화장실 대원교회,경기 성남시 중원구 상대원동 3397,0,0,:~:,37.43836159,127.1578972,0,0
새소망병원 개방화장실,경기 성남시 수정구 수진동 4553,0,0,:~:,37.43862541,127.1274427,0,0
정풍빌딩 개방화장실,경기 성남시 수정구 수진동 4538,0,0,:~:,37.43936066,127.1274214,0,0
제일프라자빌딩 개방화장실,경기 성남시 수정구 수진동 3042,0,0,:~:,37.43902711,127.1292423,0,0
기아대교 1호 개방화장실,서울 금천구 시흥동 982,0,0,:~:,37.43976182,126.9021091,0,0
성남중앙지하도상가 E동 개방화장실,경기 성남시 수정구 신흥동 2467,0,0,:~:,37.43985249,127.1447472,0,0
개방화장실 성남중앙지하도상가C동,경기 성남시 중원구 중앙동 1,0,0,:~:,37.44027952,127.1462487,0,0
개방화장실 선경종합A상가,경기 성남시 중원구 상대원동 279-1,0,0,:~:,37.43997579,127.171144,0,0
삼미시장씨디협동조합 화장실,경기 시흥시 신천동 738,0,0,:~:,37.44080552,126.78322,0,0
신천리주유소 화장실,경기 시흥시 신천동 710,0,0,:~:,37.44039281,126.7861592,0,0
신천프라자빌딩 화장실,경기 시흥시 신천동 712-9,0,0,:~:,37.44114643,126.7843852,0,0
삼미시장협동조합 화장실,경기 시흥시 신천동 738-4,0,0,:~:,37.44040667,126.7838766,0,0
금강주유소 화장실,경기 시흥시 과림동 440-33,0,0,:~:,37.44086111,126.8330033,0,0
시흥3동주민센터 개방화장실,서울 금천구 시흥동 956-3,0,0,:~:,37.44025677,126.9057854,0,0
대득에너지 금천셀프주유소 개방화장실,서울 금천구 시흥동 983-1,0,0,:~:,37.44119141,126.902801,0,0
박미사랑마을회관 개방화장실,서울 금천구 시흥동 957-10,0,0,:~:,37.44054283,126.9074801,0,0
관문체육공원 화장실,경기 과천시 관문동 3,0,0,:~:,37.44048884,126.995367,0,0
성남정병원 개방화장실,경기 성남시 수정구 수진동 2968,0,0,:~:,37.43985811,127.1289997,0,0
곽여성병원 개방화장실,경기 성남시 수정구 태평동 6450,0,0,:~:,37.44077734,127.1304612,0,0
SR프라자 개방화장실,경기 성남시 수정구 수진동 56,0,0,:~:,37.44072854,127.1322194,0,0
SK에너지 시흥주유소 화장실,경기 시흥시 신천동 712-11,0,0,:~:,37.44152699,126.7835795,0,0
교보생명 개방화장실,경기 성남시 수정구 신흥동 5542,0,0,:~:,37.44206413,127.1367193,0,0
스케쳐스 화장실,경기 시흥시 신천동 747,0,0,:~:,37.44149123,126.779828,0,0
태평물놀이장 화장실,경기 성남시 수정구 태평동 7003-20,0,0,:~:,37.44209414,127.1189689,0,0
이동식화장실임대,경기 시흥시 신천동 705-1,0,0,:~:,37.44316252,126.7831906,0,0
신천제일주유소 화장실,경기 시흥시 신천동 586-6,0,0,:~:,37.44297215,126.7739158,0,0
은계호수공원 공용화장실,경기 시흥시 은행동 0,0,0,:~:,37.44393182,126.8059024,0,0
시흥계곡 개방화장실,서울 금천구 시흥동 산 73-5,0,0,:~:,37.44355249,126.9163111,0,0
한신프라자오피스텔 개방화장실,경기 성남시 수정구 신흥동 2463-4,0,0,:~:,37.44374192,127.1528142,0,0
시흥유통종합상가 개방화장실,서울 금천구 시흥동 984,0,0,:~:,37.44468229,126.9010517,0,0
단대전통시장 개방화장실,경기 성남시 중원구 금광동 10,0,0,:~:,37.4448127,127.1580147,0,0
대야동주유소 화장실,경기 시흥시 대야동 362-9,0,0,:~:,37.44527325,126.7904938,0,0
GS칼텍스 일신주유소 개방화장실,서울 금천구 시흥동 939-4,0,0,:~:,37.4444759,126.9042659,0,0
문화주유소 개방화장실,서울 금천구 시흥동 984-2,0,0,:~:,37.4453005,126.9033788,0,0
금천구시설공단 개방화장실,서울 금천구 시흥동 985-26,0,0,:~:,37.44588375,126.9026322,0,0
제중빌딩 개방화장실,경기 성남시 수정구 신흥동 3436-11,0,0,:~:,37.44416845,127.1431825,0,0
이마트성남점 개방화장실,경기 성남시 수정구 태평동 7336,0,0,:~:,37.44402097,127.1414476,0,0
황송공원 화장실,경기 성남시 중원구 금광동 2449-1,0,0,:~:,37.44497447,127.1737184,0,0
대광주유소 화장실,경기 시흥시 과림동 305-1,0,0,:~:,37.44674855,126.8318782,0,0
제4야영장A 개방화장실,서울 관악구 신림동 산 56-2,0,0,:~:,37.44671245,126.947853,0,0
제4야영장B 개방화장실,서울 관악구 신림동 산 56-2,0,0,:~:,37.446615,126.9475276,0,0
일오삼플레이스 개방화장실,서울 금천구 시흥동 904-22,0,0,:~:,37.44890085,126.9032431,0,0
삼막정 개방화장실,서울 관악구 신림동 산 56-2,0,0,:~:,37.44750296,126.9465551,0,0
제1야영장 개방화장실,서울 관악구 신림동 산 56-2,0,0,:~:,37.44748242,126.9449887,0,0
계수한식부페 화장실,경기 시흥시 계수동 487-6,0,0,:~:,37.44864895,126.8066542,0,0
시흥5동주민센터 개방화장실,서울 금천구 시흥동 910-5,0,0,:~:,37.45073577,126.90834,0,0
백산주유소 개방화장실,서울 금천구 시흥동 904,0,0,:~:,37.44971869,126.902912,0,0
에벤에셀프라자 개방화장실,서울 금천구 시흥동 912-20,0,0,:~:,37.45043388,126.9094434,0,0
범일운수 개방화장실,서울 금천구 시흥동 271-51,0,0,:~:,37.44986617,126.9117315,0,0
금천청소년수련관 1층 개방화장실,서울 금천구 시흥동 산 84-7,0,0,:~:,37.44819318,126.9156979,0,0
새마을금고 옆 개방화장실,서울 금천구 시흥동 1011,0,0,:~:,37.44986695,126.9127836,0,0
벽산1단지 상가 개방화장실,서울 금천구 시흥동 1010,0,0,:~:,37.44999004,126.9173108,0,0
벽산5단지 상가 개방화장실,서울 금천구 시흥동 1013,0,0,:~:,37.44980086,126.9199759,0,0
금천종합복지타운 1층 개방화장실,서울 금천구 시흥동 1013-7,0,0,:~:,37.45030347,126.9146038,0,0
희망대공원 화장실3,경기 성남시 수정구 신흥동 2182,0,0,:~:,37.44705759,127.1528662,0,0
희망대공원 화장실,경기 성남시 수정구 신흥동 2182,0,0,:~:,37.4479482,127.1497263,0,0
희망대공원 화장실2,경기 성남시 수정구 신흥동 2182,0,0,:~:,37.44640771,127.1509527,0,0
경원프라자 개방화장실,경기 성남시 수정구 태평동 5113-9,0,0,:~:,37.44883964,127.1271301,0,0
개방화장실 월드비전,경기 성남시 중원구 금광동 2957,0,0,:~:,37.44970315,127.1660806,0,0
우리주유소 화장실,경기 시흥시 계수동 531-1,0,0,:~:,37.44953126,126.8106842,0,0
명연에너지 시흥IC훼미리주유소 화장실,경기 시흥시 대야동 261-1,0,0,:~:,37.45314652,126.7957702,0,0
샘터주유소 화장실,경기 시흥시 계수동 174,0,0,:~:,37.45306222,126.8169049,0,0
플라자 카멜리아 개방화장실,서울 금천구 시흥동 831-6,0,0,:~:,37.45157012,126.9083604,0,0
금천마을예술창작소 어울샘 개방화장실,서울 금천구 시흥동 247-19,0,0,:~:,37.45180576,126.9116195,0,0
청담종합사회복지관 개방화장실,서울 금천구 시흥동 241-7,0,0,:~:,37.45123282,126.913919,0,0
금천노인종합복지관 개방화장실,서울 금천구 시흥동 558-1,0,0,:~:,37.45015047,126.8977897,0,0
홈플러스 개방화장실,서울 금천구 시흥동 992-47,0,0,:~:,37.45187667,126.9008015,0,0
호압사 개방화장실,서울 금천구 시흥동 234,0,0,:~:,37.45252453,126.9253402,0,0
단대공원 화장실,경기 성남시 수정구 단대동 193,0,0,:~:,37.45109874,127.1548589,0,0
동양주유소 화장실,경기 시흥시 과림동 94-1,0,0,:~:,37.45295711,126.8335686,0,0
서울추모공원 개방화장실,서울 서초구 원지동 63,0,0,:~:,37.45203039,127.0427929,0,0
은행근린공원 화장실,경기 성남시 중원구 은행동 199-1,0,0,:~:,37.4535906,127.1695476,0,0
명성주유소 화장실,경기 시흥시 대야동 143-2,0,0,:~:,37.45310979,126.7892197,0,0
은행나무공원 개방화장실,서울 금천구 시흥동 836,0,0,:~:,37.45210064,126.9069776,0,0
금빛공원 화장실,서울 금천구 시흥동 893-1,0,0,:~:,37.4529201,126.9041511,0,0
금천구청 3호 개방화장실,서울 금천구 시흥동 113-55,0,0,:~:,37.45561133,126.8945136,0,0
벽산2단지 상가 개방화장실,서울 금천구 시흥동 1010,0,0,:~:,37.45356593,126.9195876,0,0
송암약수터 개방화장실,서울 관악구 신림동 산 57-14,0,0,:~:,37.45553653,126.9281052,0,0
삼호약수터B 개방화장실,서울 관악구 신림동 산 57-14,0,0,:~:,37.45554283,126.928104,0,0
금천구청역 자전거보관소 4호 개방화장실,서울 금천구 시흥동 1020,0,0,:~:,37.45673289,126.8948003,0,0
금나래도서관 개방화장실,서울 금천구 시흥동 1020,0,0,:~:,37.45658216,126.8960268,0,0
금나래아트홀 개방화장실,서울 금천구 시흥동 1020,0,0,:~:,37.45653798,126.8959952,0,0
금빛공원 개방화장실,서울 금천구 시흥동 893-25,0,0,:~:,37.45245178,126.9043958,0,0
금천구청 1층 개방화장실,서울 금천구 시흥동 1020,0,0,:~:,37.45673245,126.8948014,0,0
제2광장 개방화장실,서울 관악구 신림동 산 56-2,0,0,:~:,37.4555991,126.9457491,0,0
단대공원 화장실3,경기 성남시 수정구 단대동 196,0,0,:~:,37.45458609,127.1586094,0,0
단대공원 화장실2,경기 성남시 수정구 산성동 510-2,0,0,:~:,37.45497645,127.1550432,0,0
SM에너지 SM주유소 화장실,경기 시흥시 계수동 91,0,0,:~:,37.45773645,126.8144522,0,0
금빛휘트니스센터 개방화장실,서울 금천구 시흥동 893-1,0,0,:~:,37.45263189,126.9042826,0,0
삼성공영주차장 개방화장실,서울 금천구 시흥동 171-1,0,0,:~:,37.45458903,126.9090225,0,0
서울대공학관 개방화장실,서울 관악구 신림동 산 56-1,0,0,:~:,37.45689519,126.9508614,0,0
제1광장 개방화장실,서울 관악구 신림동 산 50-18,0,0,:~:,37.45821254,126.9468549,0,0
한강에너지 퍼스트파크주유소 개방화장실,서울 서초구 내곡동 337-1,0,0,:~:,37.45745128,127.0601633,0,0
은행시장 개방화장실,경기 성남시 중원구 은행동 1553,0,0,:~:,37.45758383,127.164484,0,0
제2구민운동장 개방화장실,서울 관악구 신림동 산 58-8,0,0,:~:,37.45760038,126.9336449,0,0
신양교회 옆 개방화장실,서울 관악구 신림동 산 57-13,0,0,:~:,37.45826848,126.9267768,0,0
백운주유소 개방화장실,서울 금천구 독산동 1077-3,0,0,:~:,37.45887721,126.8993421,0,0
하우고개주유소 화장실,경기 시흥시 대야동 57-5,0,0,:~:,37.45835555,126.7862482,0,0
하나은행 개방화장실,서울 금천구 시흥동 803-17,0,0,:~:,37.45899027,126.9053234,0,0
만남의광장휴게소충전소 부산방향 개방화장실,서울 서초구 원지동 10-16,0,0,:~:,37.45964041,127.0426073,0,0
서울만남의광장휴게소 개방화장실,서울 서초구 원지동 10-16,0,0,:~:,37.46030744,127.0418109,0,0
구용화사 개방화장실,서울 관악구 신림동 산 29,0,0,:~:,37.46116234,126.942752,0,0
경로구역 B 개방화장실,서울 관악구 신림동 산 29,0,0,:~:,37.46116234,126.942752,0,0
옥길공원관리사무소 개방화장실,경기 부천시 옥길동 752-1,0,0,:~:,37.46100067,126.8256048,0,0
효봉공영주차장 개방화장실,서울 금천구 시흥동 3-129,0,0,:~:,37.4607426,126.9109365,0,0
2-4 삼성동 개방화장실,서울 관악구 신림동 산 60,0,0,:~:,37.46094331,126.9339606,0,0
세곡동공원 리엔파크 개방화장실,서울 강남구 세곡동 525-1,0,0,:~:,37.46022988,127.10349,0,0
삼미상사 시흥IC셀프주유소 화장실,경기 시흥시 계수동 380-16,0,0,:~:,37.46284541,126.8002245,0,0
그린주유소 화장실,경기 시흥시 계수동 377-10,0,0,:~:,37.4614901,126.8022536,0,0
1-16 삼성동 개방화장실,서울 관악구 신림동 산 78-9,0,0,:~:,37.45970936,126.928516,0,0
2-5 삼성동 개방화장실,서울 관악구 신림동 산 79-4,0,0,:~:,37.4603043,126.928963,0,0
2-6 삼성동 개방화장실,서울 관악구 신림동 산 74-4,0,0,:~:,37.46108009,126.9304995,0,0
1-15삼성동 개방화장실,서울 관악구 신림동 316-137,0,0,:~:,37.46198195,126.9319726,0,0
보덕사 개방화장실,서울 관악구 신림동 산 63-5,0,0,:~:,37.46249684,126.937608,0,0
경로구역 A 개방화장실,서울 관악구 신림동 산 29,0,0,:~:,37.46289353,126.9453844,0,0
경로구역 개방화장실,서울 관악구 신림동 산 31-1,0,0,:~:,37.46289631,126.9475535,0,0
남태령쉼터 정각사 입구 개방화장실,서울 서초구 방배동 2939,0,0,:~:,37.46177032,126.9885702,0,0
여의천 무인화장실,서울 서초구 원지동 15-18,0,0,:~:,37.46153879,127.0427633,0,0
농협 독산동지점 개방화장실,서울 금천구 독산동 1054-28,0,0,:~:,37.46360802,126.8978301,0,0
새한벤처월드 개방화장실,서울 금천구 시흥동 113-15,0,0,:~:,37.45857346,126.898167,0,0
경복에너지주유소 개방화장실,서울 금천구 시흥동 860-36,0,0,:~:,37.46043131,126.9046072,0,0
대신석유 대우주유소 개방화장실,서울 서초구 양재동 216,0,0,:~:,37.46273166,127.037665,0,0
독산근린공원 화장실,서울 금천구 독산동 1086,0,0,:~:,37.46323581,126.8849809,0,0
샘말공원 개방화장실,서울 관악구 신림동 산 63-1,0,0,:~:,37.46432451,126.9384,0,0
세곡동 개방화장실,서울 강남구 세곡동 96-5,0,0,:~:,37.46524434,127.1100983,0,0
반고개경로당 개방화장실,서울 강남구 세곡동 128-13,0,0,:~:,37.46410113,127.1069768,0,0
금천교 5호 개방화장실,서울 금천구 가산동 687,0,0,:~:,37.46521106,126.8870962,0,0
독산1동공영주차장 개방화장실,서울 금천구 독산동 1006-94,0,0,:~:,37.46493886,126.8948035,0,0
고려테크온 개방화장실,서울 금천구 가산동 715,0,0,:~:,37.46579433,126.8883772,0,0
2-1 삼성동 개방화장실,서울 관악구 신림동 808-506,0,0,:~:,37.46502632,126.9301703,0,0
49초소 천지약수터 개방화장실,서울 관악구 봉천동 산 4-9,0,0,:~:,37.46460569,126.965013,0,0
우면프라자 개방화장실,서울 서초구 우면동 721-1,0,0,:~:,37.46453602,127.0255643,0,0
서울타일공사 시공 타일수리 위례 타일보수 화장실베란다욕,경기 성남시 수정구 창곡동 560-1,0,0,:~:,37.46450588,127.1411222,0,0
백산지구대 개방화장실,서울 금천구 시흥동 3-83,0,0,:~:,37.46231337,126.9101615,0,0
신흥주차장 개방화장실,서울 금천구 시흥동 704-56,0,0,:~:,37.45921972,126.9083658,0,0
시흥4동청소년독서실 개방화장실,서울 금천구 시흥동 812-41,0,0,:~:,37.45917687,126.9065642,0,0
새마을금고 개방화장실,서울 금천구 시흥동 802-34,0,0,:~:,37.45992362,126.9052046,0,0
남부여성발전센터 개방화장실,서울 금천구 시흥동 산 139-2,0,0,:~:,37.463146,126.9056572,0,0
2-3 삼성동 개방화장실,서울 관악구 신림동 304-13,0,0,:~:,37.46583743,126.9305109,0,0
2-2 삼성동 개방화장실,서울 관악구 신림동 304-18,0,0,:~:,37.4653149,126.9305996,0,0
난향동주민센터 개방화장실,서울 관악구 신림동 1735-5,0,0,:~:,37.46152308,126.9187257,0,0
안골약수터뒤 개방화장실,서울 관악구 신림동 808-124,0,0,:~:,37.46697523,126.9476433,0,0
양재최고주유소 개방화장실,서울 서초구 양재동 203,0,0,:~:,37.46706913,127.0347259,0,0
헌인릉 화장실,서울 서초구 내곡동 1-3079,0,0,:~:,37.46518072,127.0819565,0,0
관악문화관도서관 개방화장실,서울 관악구 신림동 209-1,0,0,:~:,37.46717035,126.9447697,0,0
대농석유 남태령주유소 개방화장실,서울 서초구 방배동 2833,0,0,:~:,37.46679701,126.9879907,0,0
상록수약수터 옆 개방화장실,서울 관악구 남현동 산 64,0,0,:~:,37.46762546,126.9782871,0,0
상록약수터가는길 개방화장실,서울 관악구 남현동 산 64,0,0,:~:,37.46761374,126.9782837,0,0
난우공원 개방화장실,서울 관악구 신림동 652-160,0,0,:~:,37.46643032,126.92189,0,0
현대주유소 개방화장실,서울 관악구 신림동 666-14,0,0,:~:,37.46498361,126.919676,0,0
난곡공원 개방화장실,서울 관악구 신림동 산 105-12,0,0,:~:,37.46608831,126.9171473,0,0
벧엘감리교회 개방화장실,서울 금천구 독산동 1022-83,0,0,:~:,37.46707865,126.9020124,0,0
독산배드민턴체육관 개방화장실,서울 금천구 독산동 938-5,0,0,:~:,37.46776496,126.9072657,0,0
독산주유소 개방화장실,서울 금천구 독산동 1043-51,0,0,:~:,37.46314475,126.9034812,0,0
산기슭공원 개방화장실,서울 금천구 시흥동 산 138-3,0,0,:~:,37.46366289,126.9075691,0,0
남부여성주차장 개방화장실,서울 금천구 시흥동 산 139-2,0,0,:~:,37.46318023,126.9056482,0,0
광장 개방화장실,서울 관악구 신림동 210,0,0,:~:,37.46821496,126.9455162,0,0
군인아파트2동뒤 개방화장실,서울 관악구 봉천동 산 3-6,0,0,:~:,37.46864376,126.9706938,0,0
관음사밑 개방화장실,서울 관악구 남현동 산 58,0,0,:~:,37.4679404,126.9761799,0,0
둘레길 개방화장실,서울 관악구 남현동 산 65,0,0,:~:,37.46849481,126.9776188,0,0
문화예술공원 개방화장실,서울 서초구 양재동 200,0,0,:~:,37.4668884,127.0300821,0,0
태봉셀프주유소 개방화장실,서울 서초구 우면동 13-6,0,0,:~:,37.46825121,127.0281293,0,0
양재천 무인화장실,서울 서초구 우면동 143-6,0,0,:~:,37.46826188,127.0287126,0,0
KAL위령탑 옆 개방화장실,서울 서초구 양재동 234,0,0,:~:,37.46762047,127.0378924,0,0
매헌시민의숲 화장실,서울 서초구 양재동 200,0,0,:~:,37.46890257,127.0319278,0,0
세곡동주민센터 개방화장실,서울 강남구 율현동 278-1,0,0,:~:,37.46904955,127.1068979,0,0
위례근린공원 화장실,경기 성남시 수정구 창곡동 578,0,0,:~:,37.4675173,127.1532266,0,0
대륭테크노타운 6호 개방화장실,서울 금천구 가산동 569-21,0,0,:~:,37.46846155,126.884628,0,0
금천체육공원1 개방화장실,서울 금천구 독산동 374,0,0,:~:,37.46762849,126.9090474,0,0
금천체육공원 개방화장실,서울 금천구 독산동 374,0,0,:~:,37.46762849,126.9090519,0,0
1-11 삼성동 개방화장실,서울 관악구 신림동 808-499,0,0,:~:,37.46790898,126.9307261,0,0
남현베드민턴장옆 개방화장실,서울 관악구 남현동 산 57-4,0,0,:~:,37.46966528,126.9779248,0,0
위례주제공원 화장실,경기 성남시 수정구 창곡동 527,0,0,:~:,37.4694617,127.1475445,0,0
용못내공원 개방화장실,경기 부천시 옥길동 735,0,0,:~:,37.46984718,126.8246459,0,0
남서울경복에너지주유소 개방화장실,서울 금천구 독산동 195-2,0,0,:~:,37.46983244,126.9023751,0,0
호암노인종합복지관 개방화장실,서울 금천구 독산동 917,0,0,:~:,37.46949694,126.9064225,0,0
낙성대숲속공원 화장실,서울 관악구 봉천동 산 35-2,0,0,:~:,37.46863763,126.9618369,0,0
대학동 주민센터 개방화장실,서울 관악구 신림동 1516,0,0,:~:,37.47058756,126.9369388,0,0
1-6 삼성동 개방화장실,서울 관악구 신림동 808-501,0,0,:~:,37.46947641,126.9317036,0,0
매점 뒤 개방화장실,서울 서초구 양재동 236,0,0,:~:,37.47014125,127.0358035,0,0
꽃동산 옆 개방화장실,서울 서초구 양재동 236,0,0,:~:,37.47073568,127.0365951,0,0
서울서초우체국 개방화장실,서울 서초구 양재동 324-2,0,0,:~:,37.46988719,127.0412476,0,0
양재2동주민센터 개방화장실,서울 서초구 양재동 323-1,0,0,:~:,37.47064403,127.0412842,0,0
화장실,경기 성남시 수정구 창곡동 499-165,0,0,:~:,37.46880041,127.1354589,0,0
새울빌딩 개방화장실,서울 금천구 독산동 287-7,0,0,:~:,37.4705504,126.8985382,0,0
난곡동주민센터 개방화장실,서울 관악구 신림동 633-56,0,0,:~:,37.47093163,126.9216728,0,0
1-8 삼성동 개방화장실,서울 관악구 신림동 808-498,0,0,:~:,37.46867229,126.930982,0,0
삼성동주민센터 개방화장실,서울 관악구 신림동 1528,0,0,:~:,37.47010603,126.932942,0,0
낙성배드민턴장 옆 개방화장실,서울 관악구 봉천동 738-332,0,0,:~:,37.47159504,126.9574153,0,0
낙성대 개방화장실,서울 관악구 봉천동 228,0,0,:~:,37.47194359,126.9595833,0,0
양재근린공원 개방화장실,서울 서초구 양재동 311,0,0,:~:,37.47180954,127.0424142,0,0
족구장 옆 개방화장실,서울 서초구 양재동 236,0,0,:~:,37.47184728,127.0373745,0,0
원형광장 개방화장실,서울 서초구 양재동 236,0,0,:~:,37.47149314,127.0345697,0,0
복정역 환승공영주차장 개방화장실,서울 송파구 장지동 600-2,0,0,:~:,37.47021622,127.1270566,0,0
복정역 분당선 개방화장실,서울 송파구 장지동 596-21,0,0,:~:,37.47105537,127.1267698,0,0
완불주유소 화장실,서울 송파구 장지동 608-5,0,0,:~:,37.47099475,127.1261683,0,0
완불주유소 개방화장실,서울 송파구 장지동 608-5,0,0,:~:,37.47111099,127.1261538,0,0
독산3동공영주차장 개방화장실,서울 금천구 독산동 161-23,0,0,:~:,37.47216525,126.89927,0,0
건국빌딩 개방화장실,서울 금천구 독산동 288-1,0,0,:~:,37.4711584,126.8977294,0,0
국민은행독산동지점 개방화장실,서울 금천구 독산동 159-22,0,0,:~:,37.47181153,126.898651,0,0
우림시장 개방화장실,서울 관악구 신림동 637-1,0,0,:~:,37.47027846,126.92043,0,0
1-10 삼성동 개방화장실,서울 관악구 신림동 808-502,0,0,:~:,37.4688195,126.9315719,0,0
성주산생활체육공원 화장실,경기 부천시 소사본동 367,0,0,:~:,37.47212219,126.7898265,0,0
난곡주유소 개방화장실,서울 관악구 신림동 616-1,0,0,:~:,37.47340745,126.9187728,0,0
명화가스 개방화장실,서울 관악구 봉천동 1594-8,0,0,:~:,37.47377761,126.9534957,0,0
대공원주유소 개방화장실,서울 관악구 남현동 602-306,0,0,:~:,37.47281953,126.9821564,0,0
삼일빌딩 개방화장실,서울 금천구 독산동 148-17,0,0,:~:,37.47334146,126.8955695,0,0
독산도서관 개방화장실,서울 금천구 독산동 375-2,0,0,:~:,37.46755927,126.9080888,0,0
서림동주민센터 개방화장실,서울 관악구 신림동 1694-7,0,0,:~:,37.47499784,126.9349635,0,0
유림주유소 개방화장실,서울 관악구 신림동 112-47,0,0,:~:,37.4737652,126.9348651,0,0
청룡배드민턴장 옆 개방화장실,서울 관악구 봉천동 산 175-35,0,0,:~:,37.47472027,126.9495926,0,0
인헌동주민센터 개방화장실,서울 관악구 봉천동 1635-40,0,0,:~:,37.47511516,126.9652975,0,0
예촌공원 개방화장실,서울 관악구 남현동 1083-1,0,0,:~:,37.47457736,126.976734,0,0
남현동주민센터 개방화장실,서울 관악구 남현동 1086-1,0,0,:~:,37.47457398,126.9778917,0,0
사당주차장 개방화장실,서울 서초구 방배동 507-1,0,0,:~:,37.47524171,126.9839873,0,0
양재천근린공원 개방화장실,서울 서초구 양재동 261-22,0,0,:~:,37.47428103,127.0397487,0,0
방죽주유소 개방화장실,서울 강남구 자곡동 668,0,0,:~:,37.47498543,127.1068702,0,0
위례오벨리스크 개방화장실,경기 성남시 수정구 창곡동 505,0,0,:~:,37.47304999,127.1412615,0,0
철산역 개방화장실,경기 광명시 철산동 526,0,0,:~:,37.47611153,126.8680099,0,0
SK에너지 이가주유소 개방화장실,서울 금천구 독산동 150-6,0,0,:~:,37.47315158,126.8978985,0,0
독산3동주민센터 개방화장실,서울 금천구 독산동 973-17,0,0,:~:,37.47516346,126.9031595,0,0
가산도서관 개방화장실,서울 금천구 가산동 235-3,0,0,:~:,37.47350236,126.8921348,0,0
남강어린이공원 개방화장실,서울 관악구 신림동 1678-12,0,0,:~:,37.47349064,126.9246614,0,0
1-9 삼성동 개방화장실,서울 관악구 신림동 808-502,0,0,:~:,37.46927097,126.9316868,0,0
1-12 삼성동 개방화장실,서울 관악구 신림동 808-497,0,0,:~:,37.46963931,126.9313835,0,0
태영빌딩 개방화장실,서울 관악구 신림동 96-3,0,0,:~:,37.47563349,126.9374546,0,0
전남친환경유통센터빌딩 개방화장실,서울 강남구 개포동 1197-2,0,0,:~:,37.47528971,127.0503897,0,0
양재현대주유소 개방화장실,서울 서초구 양재동 249-1,0,0,:~:,37.47354584,127.0396759,0,0
남성대주유소 개방화장실,서울 송파구 장지동 645-13,0,0,:~:,37.47538296,127.1275684,0,0
복지송파충전소 개방화장실,서울 송파구 장지동 907,0,0,:~:,37.47553705,127.1316635,0,0
위례드림주유소 개방화장실,서울 송파구 장지동 646-7,0,0,:~:,37.47542783,127.1285724,0,0
가산동주민센터내 개방화장실,서울 금천구 가산동 144-3,0,0,:~:,37.47688711,126.8917568,0,0
남현주유소 개방화장실,서울 관악구 남현동 1054-6,0,0,:~:,37.47554593,126.9724965,0,0
한국전력기술인협회 개방화장실,서울 관악구 남현동 1056-17,0,0,:~:,37.47617732,126.9755804,0,0
사당노인종합복지관 개방화장실,서울 동작구 사당동 1044-42,0,0,:~:,37.47706111,126.9798491,0,0
태림빌딩 개방화장실,서울 관악구 남현동 1057-22,0,0,:~:,37.47630739,126.9772129,0,0
방배쉼터 개방화장실,서울 서초구 방배동 445-3,0,0,:~:,37.47682007,126.9825217,0,0
양재천 연인의거리 개방화장실,서울 서초구 양재동 99-5,0,0,:~:,37.47650172,127.0406317,0,0
트윈타워 개방화장실,서울 서초구 양재동 275-3,0,0,:~:,37.47666166,127.0443693,0,0
가든파이브 주유소 개방화장실,서울 송파구 장지동 875-1,0,0,:~:,37.47577816,127.1236586,0,0
독산테니스장 개방화장실,서울 금천구 독산동 산 10-2,0,0,:~:,37.47480912,126.9062078,0,0
목화어린이공원 화장실,서울 금천구 독산동 883-9,0,0,:~:,37.47731562,126.9072154,0,0
미성동주민센터 개방화장실,서울 관악구 신림동 763-9,0,0,:~:,37.47615057,126.915558,0,0
문성골주유소 개방화장실,서울 관악구 신림동 1477-5,0,0,:~:,37.47778953,126.9143464,0,0
신림현대상가 개방화장실,서울 관악구 신림동 1694,0,0,:~:,37.47460164,126.9337791,0,0
신림동충전소 개방화장실,서울 관악구 신림동 112-46,0,0,:~:,37.47360899,126.9342491,0,0
한국전력 남부지점 개방화장실,서울 동작구 사당동 1042-1,0,0,:~:,37.47811733,126.9812959,0,0
락성주유소 개방화장실,서울 관악구 봉천동 1659-1,0,0,:~:,37.47717577,126.9623707,0,0
낙성대역 개방화장실,서울 관악구 봉천동 1693-39,0,0,:~:,37.47707163,126.9635556,0,0
청동빌딩 개방화장실,서울 관악구 봉천동 1659-2,0,0,:~:,37.47707496,126.9626873,0,0
국립국악원 개방화장실,서울 서초구 서초동 740-4,0,0,:~:,37.47770402,127.0088817,0,0
가든파이브 툴 개방화장실,서울 송파구 문정동 628,0,0,:~:,37.47827501,127.119119,0,0
산모건강증진센터 개방화장실,서울 송파구 장지동 841-1,0,0,:~:,37.47790715,127.1271431,0,0
천왕근린공원 개방화장실,서울 구로구 천왕동 276,0,0,:~:,37.47639013,126.8417572,0,0
가산농협내 개방화장실,서울 금천구 가산동 140-7,0,0,:~:,37.47860121,126.8902213,0,0
공단본부 개방화장실,서울 금천구 가산동 144-3,0,0,:~:,37.47691597,126.8917839,0,0
우리은행내 개방화장실,서울 금천구 가산동 60-51,0,0,:~:,37.47822702,126.8889635,0,0
현대아울렛내 개방화장실,서울 금천구 가산동 60-8,0,0,:~:,37.47768469,126.8890435,0,0
가산동공영주차장 개방화장실,서울 금천구 가산동 148-28,0,0,:~:,37.47680856,126.8955816,0,0
1-7 삼성동 개방화장실,서울 관악구 신림동 808-495,0,0,:~:,37.47046251,126.9323877,0,0
1-4 삼성동 개방화장실,서울 관악구 신림동 808-142,0,0,:~:,37.47003639,126.9324978,0,0
청룡동주민센터 개방화장실,서울 관악구 봉천동 1539-1,0,0,:~:,37.47911354,126.941653,0,0
관악구보건소 개방화장실,서울 관악구 봉천동 1570-1,0,0,:~:,37.47856735,126.9511999,0,0
관악구의회 개방화장실,서울 관악구 봉천동 1570-1,0,0,:~:,37.47799368,126.9518606,0,0
관악구청 개방화장실,서울 관악구 봉천동 1570-1,0,0,:~:,37.47826023,126.9515031,0,0
모래내공원 개방화장실,서울 관악구 봉천동 1613-19,0,0,:~:,37.47788967,126.955449,0,0
신봉천주유소 개방화장실,서울 관악구 봉천동 1663-11,0,0,:~:,37.47880257,126.958423,0,0
양재천 영동2교(남단) 개방화장실,서울 서초구 양재동 261-23,0,0,:~:,37.47895487,127.0440055,0,0
삼호물산빌딩 개방화장실,서울 서초구 양재동 275-6,0,0,:~:,37.47756273,127.0442003,0,0
문정지구대 개방화장실,서울 송파구 장지동 841,0,0,:~:,37.47820744,127.1269039,0,0
장지역 개찰구 밖 개방화장실,서울 송파구 장지동 201-5,0,0,:~:,37.47811877,127.1264052,0,0
철산교 7호 개방화장실,서울 금천구 가산동 547-44,0,0,:~:,37.47772756,126.877705,0,0
남부효사랑요양병원 개방화장실,서울 구로구 가리봉동 137-5,0,0,:~:,37.47887886,126.8943226,0,0
신신림시장 개방화장실,서울 관악구 신림동 390-1,0,0,:~:,37.47088048,126.9322223,0,0
예술의전당 개방화장실,서울 서초구 서초동 700,0,0,:~:,37.47897603,127.0113284,0,0
방배동주유소 개방화장실,서울 서초구 방배동 475-17,0,0,:~:,37.47808665,126.987808,0,0
서울특별시데이터센터 개방화장실,서울 서초구 서초동 393-1,0,0,:~:,37.47957282,127.0218656,0,0
누리시아웨딩홀 개방화장실,서울 서초구 방배동 1032,0,0,:~:,37.47895855,126.9989689,0,0
방배3동주민센터 개방화장실,서울 서초구 방배동 1023-3,0,0,:~:,37.47843957,126.9999955,0,0
서울석유양재주유소 개방화장실,서울 서초구 양재동 81,0,0,:~:,37.47809416,127.0395789,0,0
서울시인재개발원 쉼터(야외화장실 뒤),서울 서초구 서초동 산 46-6,0,0,:~:,37.479687,127.0180397,0,0
자연학습원 개방화장실,서울 강남구 일원동 산 63-55,0,0,:~:,37.47950024,127.0809896,0,0
대모산 소년소녀단련장 개방화장실,서울 강남구 일원동 산 52-13,0,0,:~:,37.47845634,127.0735233,0,0
남한산성로터리 개방화장실,경기 광주시 남한산성면 산성리 520-1,0,0,:~:,37.47723886,127.1849358,0,0
중앙주차장 개방화장실,경기 광주시 남한산성면 산성리 437-1,0,0,:~:,37.47689294,127.1871847,0,0
가산파출소내 개방화장실,서울 금천구 가산동 139-2,0,0,:~:,37.47992545,126.8880396,0,0
성부주유소 개방화장실,서울 금천구 가산동 142-62,0,0,:~:,37.47867513,126.8922155,0,0
만승아울렛 내 개방화장실,서울 금천구 가산동 60-6,0,0,:~:,37.47873981,126.8881273,0,0
남경도빌딩 개방화장실,서울 관악구 봉천동 853-1,0,0,:~:,37.4804776,126.9537222,0,0
약사신용조합 개방화장실,서울 관악구 봉천동 1679-5,0,0,:~:,37.47900932,126.9596202,0,0
방배2동주민센터 개방화장실,서울 서초구 방배동 462-13,0,0,:~:,37.47977218,126.9855601,0,0
사당4동주민센터 개방화장실,서울 동작구 사당동 300-8,0,0,:~:,37.48094818,126.9716353,0,0
전당앞주유소 개방화장실,서울 서초구 서초동 1464-17,0,0,:~:,37.48051488,127.0120748,0,0
개포4동주민센터 개방화장실,서울 강남구 개포동 1211-4,0,0,:~:,37.47884998,127.0516041,0,0
"탄천,장지천 합류지점 개방화장실",서울 송파구 문정동 419-13,0,0,:~:,37.47876458,127.1169943,0,0
동남권유통단지 개방화장실,서울 송파구 문정동 625,0,0,:~:,37.47865187,127.1206605,0,0
송파파크하비오 202동 A 개방화장실,서울 송파구 문정동 618,0,0,:~:,37.48081839,127.1245228,0,0
글샘공원 개방화장실,서울 송파구 문정동 625,0,0,:~:,37.47865187,127.1206605,0,0
밀미리경로당 개방화장실,서울 강남구 개포동 1265-4,0,0,:~:,37.48099203,127.0486433,0,0
위례동주민센터 개방화장실,서울 송파구 장지동 882,0,0,:~:,37.48118092,127.144057,0,0
목감천 광명교 개방화장실,서울 구로구 천왕동 51-1,0,0,:~:,37.48137031,126.8460781,0,0
행운동주민센터 개방화장실,서울 관악구 봉천동 1670-7,0,0,:~:,37.48060591,126.9570823,0,0
행운주유소 개방화장실,서울 관악구 봉천동 1679-30,0,0,:~:,37.47911008,126.9591679,0,0
사당지구대 개방화장실,서울 동작구 사당동 1028-1,0,0,:~:,37.48055337,126.9795451,0,0
삼성생명 사당빌딩 개방화장실,서울 동작구 사당동 1031-3,0,0,:~:,37.47961662,126.9813588,0,0
사당역 개방화장실,서울 동작구 사당동 1129,0,0,:~:,37.47651716,126.9813913,0,0
방배경찰서 개방화장실,서울 서초구 방배동 455-10,0,0,:~:,37.48159909,126.9829774,0,0
교보빌딩 개방화장실,서울 동작구 사당동 1008-22,0,0,:~:,37.48199711,126.9814939,0,0
머리재빌딩 개방화장실,서울 서초구 방배동 984-1,0,0,:~:,37.48109844,126.998269,0,0
방배역 개방화장실,서울 서초구 방배동 912-14,0,0,:~:,37.4814309,126.99768,0,0
송파구 공영차고지 개방화장실,서울 송파구 장지동 862-1,0,0,:~:,37.48052119,127.1358566,0,0
송파위례도서관 개방화장실,서울 송파구 장지동 882,0,0,:~:,37.48123899,127.1437292,0,0
남한산성 수어장대화장실,경기 광주시 남한산성면 산성리 산 18-3,0,0,:~:,37.4811606,127.1763246,0,0
구광주유소 개방화장실,서울 금천구 가산동 535-155,0,0,:~:,37.48203894,126.8751699,0,0
견인보관소 개방화장실,서울 금천구 가산동 614-34,0,0,:~:,37.48330127,126.8760452,0,0
가산D.C역 개방화장실,서울 금천구 가산동 34-83,0,0,:~:,37.48168639,126.8828406,0,0
갑을그레이트밸리내 개방화장실,서울 금천구 가산동 60-5,0,0,:~:,37.47951408,126.887502,0,0
오장동 냉면빌딩 개방화장실,서울 관악구 신림동 1637-11,0,0,:~:,37.48122269,126.9298522,0,0
서원동주민센터 개방화장실,서울 관악구 신림동 1641-65,0,0,:~:,37.47975674,126.9313731,0,0
신관주유소 개방화장실,서울 관악구 신림동 1641-58,0,0,:~:,37.48041587,126.930667,0,0
태영유업 개방화장실,서울 금천구 독산동 967,0,0,:~:,37.47679995,126.8991598,0,0
JHC에너지주유소 개방화장실,서울 구로구 구로동 1126-17,0,0,:~:,37.48152897,126.899773,0,0
삼주물산 개방화장실,서울 금천구 독산동 954,0,0,:~:,37.47756047,126.8992311,0,0
SK순환도로주유소 개방화장실,서울 금천구 독산동 900-4,0,0,:~:,37.48020897,126.9074809,0,0
다목적공영주차장 개방화장실,서울 금천구 독산동 971,0,0,:~:,37.476532,126.9019548,0,0
구룡공영주차장 개방화장실,서울 금천구 독산동 964,0,0,:~:,37.47788418,126.9027535,0,0
서원빌딩 개방화장실,서울 관악구 봉천동 912-18,0,0,:~:,37.48226917,126.946078,0,0
청운빌딩 개방화장실,서울 관악구 봉천동 927-5,0,0,:~:,37.48203671,126.9422703,0,0
장군봉 복지시설 개방화장실,서울 관악구 신림동 산 170-135,0,0,:~:,37.48171916,126.9345823,0,0
서계빌딩 개방화장실,서울 관악구 봉천동 1664-17,0,0,:~:,37.47934266,126.9569711,0,0
백광빌딩 개방화장실,서울 관악구 봉천동 874-9,0,0,:~:,37.48193544,126.94933,0,0
방배1동주민센터 개방화장실,서울 서초구 방배동 922-18,0,0,:~:,37.48335715,126.9944904,0,0
서울특별시소방학교 개방화장실,서울 서초구 서초동 391,0,0,:~:,37.48119164,127.0234172,0,0
양재천 영동2교 개방화장실,서울 강남구 개포동 1279,0,0,:~:,37.48227883,127.0482462,0,0
출발마당 개방화장실,서울 강남구 개포동 1267-1,0,0,:~:,37.48262075,127.0493725,0,0
공중화장실,서울 강남구 도곡동 468,0,0,:~:,37.48230007,127.0469663,0,0
한솔공원 개방화장실,서울 강남구 일원동 732,0,0,:~:,37.48098436,127.0780641,0,0
일원장미공원 개방화장실,서울 강남구 일원동 732-4,0,0,:~:,37.48065724,127.0808247,0,0
시설관리공단 개방화장실,서울 송파구 장지동 846,0,0,:~:,37.48086161,127.1303952,0,0
송파글마루도서관 개방화장실,서울 송파구 장지동 846,0,0,:~:,37.48085981,127.1303963,0,0
맑은샘화장실,경기 부천시 괴안동 114-12,0,0,:~:,37.4834391,126.8113268,0,0
관리동-푸른수목원 개방화장실,서울 구로구 항동 81-1,0,0,:~:,37.48252782,126.8233364,0,0
항동배드민턴장 개방화장실,서울 구로구 항동 84,0,0,:~:,37.48125001,126.8262474,0,0
봉림교 가로공원 공중화장실,서울 관악구 신림동 1433-157,0,0,:~:,37.4840859,126.9265616,0,0
신원동주민센터 개방화장실,서울 관악구 신림동 1601-3,0,0,:~:,37.48157797,126.9273374,0,0
유정주유소 개방화장실,서울 관악구 봉천동 948-17,0,0,:~:,37.48402068,126.9385919,0,0
서울사당동우체국 개방화장실,서울 동작구 사당동 1007-57,0,0,:~:,37.48333602,126.981575,0,0
개포경로당 개방화장실,서울 강남구 개포동 169-3,0,0,:~:,37.48370381,127.0608697,0,0
일원경로당 개방화장실,서울 강남구 일원동 730,0,0,:~:,37.48408661,127.0779474,0,0
자곡셀프주유소 개방화장실,서울 강남구 자곡동 210,0,0,:~:,37.48353315,127.1040106,0,0
남한산성 서문화장실,경기 광주시 남한산성면 산성리 산 18-2,0,0,:~:,37.4834011,127.1765288,0,0
국청사 개방화장실,경기 광주시 남한산성면 산성리 805,0,0,:~:,37.48398929,127.1778406,0,0
영진주유소 개방화장실,서울 구로구 가리봉동 90-2,0,0,:~:,37.4837051,126.8870028,0,0
삼남빌딩 개방화장실,서울 관악구 신림동 527-13,0,0,:~:,37.48229459,126.9156178,0,0
조원동주민센터 개방화장실,서울 관악구 신림동 568-27,0,0,:~:,37.48255903,126.9077765,0,0
삼부르네상스 개방화장실,서울 금천구 독산동 953,0,0,:~:,37.47856353,126.9005729,0,0
CJ대한통운 개방화장실,서울 관악구 신림동 507-24,0,0,:~:,37.48294744,126.9189354,0,0
현대오일뱅크직영 관악셀프주유소 개방화장실,서울 관악구 신림동 1571-8,0,0,:~:,37.48246306,126.9194674,0,0
봉림 개방화장실,서울 관악구 신림동 1433-157,0,0,:~:,37.4840859,126.9265616,0,0
봉천중앙시장 개방화장실,서울 관악구 봉천동 32-2,0,0,:~:,37.48397013,126.9542854,0,0
신림역 개방화장실,서울 관악구 신림동 1467-10,0,0,:~:,37.484214,126.9297907,0,0
사당솔밭도서관 개방화장실,서울 동작구 사당동 708-1188,0,0,:~:,37.48411863,126.9673783,0,0
사당종합사회복지관 개방화장실,서울 동작구 사당동 268-6,0,0,:~:,37.48330518,126.9714671,0,0
수도석유 방배충전소 개방화장실,서울 서초구 방배동 443-1,0,0,:~:,37.47884278,126.9821301,0,0
서초3동주민센터 개방화장실,서울 서초구 서초동 1451-13,0,0,:~:,37.48358187,127.012505,0,0
현대오일뱅크직영 서초현대주유소 개방화장실,서울 서초구 서초동 1460-10,0,0,:~:,37.48339909,127.0113099,0,0
대성석유 연일주유소 개방화장실,서울 서초구 서초동 1426-13,0,0,:~:,37.48260078,127.018556,0,0
서울남부터미널 개방화장실,서울 서초구 서초동 1446-1,0,0,:~:,37.4846032,127.015922,0,0
서울특별시시정개발연구원 개방화장실,서울 서초구 서초동 391,0,0,:~:,37.48119434,127.0234127,0,0
도곡경로당 개방화장실,서울 강남구 도곡동 455,0,0,:~:,37.48333967,127.0450901,0,0
중앙주유소 개방화장실,서울 서초구 양재동 4-18,0,0,:~:,37.48155673,127.0422082,0,0
양재천 영동3교 개방화장실,서울 강남구 개포동 649-1,0,0,:~:,37.48444046,127.052232,0,0
개포현대2차 상가 개방화장실,서울 강남구 개포동 654,0,0,:~:,37.48313217,127.0522888,0,0
일원역 개방화장실,서울 강남구 일원동 717,0,0,:~:,37.48407134,127.0844374,0,0
숲교육센터-푸른수목원 개방화장실,서울 구로구 항동 48-1,0,0,:~:,37.48531258,126.827432,0,0
개웅산공원 개방화장실,서울 구로구 개봉동 297-27,0,0,:~:,37.48513282,126.848793,0,0
광명3배수펌프장 공용화장실,경기 광명시 광명동 12-52,0,0,:~:,37.48563216,126.8576452,0,0
신림종합시장 개방화장실,서울 관악구 신림동 505-1,0,0,:~:,37.48464906,126.9170725,0,0
공인중개사협회 개방화장실,서울 관악구 봉천동 930-42,0,0,:~:,37.48223083,126.9412435,0,0
관악시몬주유소 개방화장실,서울 관악구 봉천동 912-15,0,0,:~:,37.48235882,126.9451011,0,0
사당1동 주민센터 개방화장실,서울 동작구 사당동 1004-52,0,0,:~:,37.48303641,126.9787394,0,0
현대오일뱅크 직영 사당셀프주유소 화장실,서울 동작구 사당동 1007-47,0,0,:~:,37.48310085,126.9815434,0,0
서초브이샤르망 개방화장실,서울 서초구 서초동 1601-1,0,0,:~:,37.48612249,127.0145135,0,0
대한건축사협회 개방화장실,서울 서초구 서초동 1603-55,0,0,:~:,37.48598855,127.0187151,0,0
양재1동주민센터 개방화장실,서울 서초구 양재동 11-13,0,0,:~:,37.48452486,127.0361643,0,0
양재역 개방화장실,서울 서초구 서초동 1366-9,0,0,:~:,37.48372886,127.034512,0,0
서초보건소 개방화장실,서울 서초구 서초동 1376-3,0,0,:~:,37.48362127,127.0326667,0,0
중앙에너비스수서지점 개방화장실,서울 강남구 수서동 522-1,0,0,:~:,37.4840273,127.0949705,0,0
궁마을경로당 개방화장실,서울 강남구 수서동 471-11,0,0,:~:,37.48492481,127.0992365,0,0
문이공원 개방화장실,서울 송파구 문정동 478,0,0,:~:,37.48464369,127.1141994,0,0
천왕역환승센터 개방화장실,서울 구로구 천왕동 280-11,0,0,:~:,37.4871131,126.8391374,0,0
천왕역 개방화장실,서울 구로구 천왕동 14-25,0,0,:~:,37.48682057,126.8386993,0,0
구로디지털단지역 개방화장실,서울 구로구 구로동 810-3,0,0,:~:,37.48522717,126.9013962,0,0
현대오일뱅크직영 구로셀프주유소 개방화장실,서울 구로구 구로동 1131-4,0,0,:~:,37.48094104,126.8992175,0,0
남구로역 개방화장실,서울 구로구 구로동 803-5,0,0,:~:,37.48564008,126.8866019,0,0
글빛정보도서관 개방화장실,서울 관악구 봉천동 1717-4,0,0,:~:,37.48623813,126.9596672,0,0
봉천현대시장 개방화장실,서울 관악구 봉천동 503-2,0,0,:~:,37.48663027,126.9465634,0,0
거묵프리미엄상가 개방화장실,서울 동작구 사당동 248-5,0,0,:~:,37.48493021,126.969879,0,0
한미석유 서초주유소 개방화장실,서울 서초구 서초동 1582-23,0,0,:~:,37.48621659,127.0107596,0,0
성문빌딩 개방화장실,서울 서초구 양재동 1-26,0,0,:~:,37.48488435,127.0390216,0,0
양재천 영동4교 개방화장실,서울 강남구 개포동 648-2,0,0,:~:,37.48613245,127.0544675,0,0
구룡역 개방화장실,서울 강남구 개포동 175-3,0,0,:~:,37.48698691,127.0594262,0,0
소리공원 개방화장실,서울 송파구 문정동 653,0,0,:~:,37.4826188,127.1208659,0,0
새서울석유 대원셀프주유소 개방화장실,서울 구로구 개봉동 359-1,0,0,:~:,37.48623764,126.8561583,0,0
개봉3치안센터 개방화장실,서울 구로구 개봉동 360-4,0,0,:~:,37.48583295,126.8538457,0,0
구로3동 동산빌라앞 개방화장실,서울 구로구 구로동 792-78,0,0,:~:,37.48646179,126.8884923,0,0
구로4동 경로당 개방화장실,서울 구로구 구로동 745-74,0,0,:~:,37.48703807,126.8862199,0,0
신림동주민센터 개방화장실,서울 관악구 신림동 1439-3,0,0,:~:,37.48741275,126.9270921,0,0
사당3치안센터 개방화장실,서울 동작구 사당동 169-21,0,0,:~:,37.48358882,126.9746282,0,0
태농빌딩 개방화장실,서울 동작구 사당동 1007-50,0,0,:~:,37.48285668,126.9815299,0,0
하나은행 방배사옥 개방화장실,서울 서초구 방배동 935-34,0,0,:~:,37.48561507,126.9943783,0,0
포탈하이웨이 개방화장실,서울 서초구 방배동 937-1,0,0,:~:,37.48693406,126.9927002,0,0
오토테크주유소 개방화장실,서울 서초구 서초동 1438-1,0,0,:~:,37.48649955,127.023048,0,0
수서역 분당선 개방화장실,서울 강남구 수서동 728,0,0,:~:,37.48749896,127.1013917,0,0
수서역 개방화장실,서울 강남구 수서동 728,0,0,:~:,37.48738414,127.1018449,0,0
수서현대벤처빌 개방화장실,서울 강남구 수서동 713,0,0,:~:,37.48801845,127.1018458,0,0
탄천공원 개방화장실,서울 강남구 수서동 722,0,0,:~:,37.48743411,127.1064809,0,0
강남구직업재활센터 개방화장실,서울 강남구 수서동 721,0,0,:~:,37.4869796,127.106928,0,0
수서개나리공원 개방화장실,서울 강남구 수서동 723,0,0,:~:,37.48751422,127.1055719,0,0
문정근린공원 주차장 개방화장실,서울 송파구 문정동 38-3,0,0,:~:,37.4859494,127.1238936,0,0
문정역 개방화장실,서울 송파구 문정동 119-4,0,0,:~:,37.48626103,127.122275,0,0
한국육영학교 개방화장실,서울 송파구 장지동 848-1,0,0,:~:,37.48196295,127.1325544,0,0
연화공원 개방화장실,서울 송파구 문정동 92,0,0,:~:,37.48518363,127.1288628,0,0
오류2동주민센터 개방화장실,서울 구로구 오류동 172-76,0,0,:~:,37.48877864,126.8394911,0,0
구로3동주민센터 개방화장실,서울 구로구 구로동 197-17,0,0,:~:,37.48601391,126.8932769,0,0
이마트구로점 개방화장실,서울 구로구 구로동 188-26,0,0,:~:,37.48439615,126.8978697,0,0
신대림주유소 개방화장실,서울 영등포구 대림동 1082-20,0,0,:~:,37.48880889,126.89951,0,0
1-2공중 화장실,서울 관악구 신림동 516,0,0,:~:,37.48726662,126.9134921,0,0
도림천 개방화장실,서울 동작구 신대방동 702-8,0,0,:~:,37.48656592,126.9102455,0,0
신대방1동주민센터 개방화장실,서울 동작구 신대방동 604-8,0,0,:~:,37.4889327,126.9100347,0,0
신대방역 개방화장실,서울 관악구 신림동 516,0,0,:~:,37.48727382,126.913483,0,0
21세기주유소 개방화장실,서울 동작구 신대방동 686-44,0,0,:~:,37.48716498,126.9054812,0,0
삼일근린공원 개방화장실,서울 동작구 사당동 산 24-17,0,0,:~:,37.48657903,126.9735553,0,0
KT양재지사 개방화장실,서울 강남구 도곡동 907-41,0,0,:~:,37.48594714,127.0402297,0,0
위례호수공원 화장실,서울 송파구 거여동 산 41-2,0,0,:~:,37.48623997,127.146345,0,0
위례제일주유소 개방화장실,서울 송파구 거여동 601,0,0,:~:,37.48777622,127.1426393,0,0
은천동주민센터 개방화장실,서울 관악구 봉천동 905-29,0,0,:~:,37.48536425,126.9425018,0,0
중앙동주민센터 개방화장실,서울 관악구 봉천동 1512-7,0,0,:~:,37.48419174,126.9497536,0,0
사당3동주민센터 개방화장실,서울 동작구 사당동 169-12,0,0,:~:,37.48661743,126.9720809,0,0
서초르네상스오피스텔 개방화장실,서울 서초구 서초동 1598-3,0,0,:~:,37.48783443,127.0142967,0,0
신영빌딩 개방화장실,서울 서초구 서초동 1597-1,0,0,:~:,37.48763996,127.0129489,0,0
서초1동주민센터 개방화장실,서울 서초구 서초동 1649-5,0,0,:~:,37.49018352,127.0194489,0,0
개포동근린공원 화장실,서울 강남구 개포동 183-1,0,0,:~:,37.48961852,127.0666277,0,0
이화경로당 개방화장실,서울 강남구 개포동 181,0,0,:~:,37.48821317,127.0594487,0,0
개포동역 개방화장실,서울 강남구 개포동 195,0,0,:~:,37.48920137,127.0665934,0,0
삼성빌딩 개방화장실,서울 강남구 개포동 186-12,0,0,:~:,37.48874956,127.0673144,0,0
개포빌딩 개방화장실,서울 강남구 개포동 186-1,0,0,:~:,37.48868136,127.0668259,0,0
남한산성등산로 화장실,경기 하남시 감이동 368,0,0,:~:,37.48955886,127.1618675,0,0
구로리어린이공원 개방화장실,서울 구로구 구로동 139-82,0,0,:~:,37.49041652,126.8916197,0,0
뱀쇠다리옆 개방화장실,서울 구로구 구로동 689-8,0,0,:~:,37.48931993,126.8725956,0,0
신구로유수지 개방화장실,서울 구로구 구로동 693-2,0,0,:~:,37.48981134,126.8754691,0,0
안양천동자전거길 화장실,서울 구로구 구로동 689-8,0,0,:~:,37.48922219,126.8721943,0,0
흰돌교회 개방화장실,서울 영등포구 대림동 1019-7,0,0,:~:,37.49094488,126.9023725,0,0
X게임장 개방화장실,서울 동작구 신대방동 722,0,0,:~:,37.49092276,126.9210006,0,0
S&G빌딩 개방화장실,서울 관악구 신림동 10-634,0,0,:~:,37.48384357,126.9376106,0,0
성현동주민센터 개방화장실,서울 관악구 봉천동 1712-9,0,0,:~:,37.48954213,126.9481342,0,0
서울대입구역 개방화장실,서울 관악구 봉천동 979-2,0,0,:~:,37.48114752,126.9526319,0,0
관악현대종합상가 개방화장실,서울 관악구 봉천동 1000,0,0,:~:,37.49105929,126.9567393,0,0
샘터도서관 개방화장실,서울 동작구 사당동 1136-1,0,0,:~:,37.48838097,126.9775574,0,0
도곡공원 개방화장실,서울 강남구 도곡동 산 39-3,0,0,:~:,37.48600032,127.0427354,0,0
개포7단지상가 개방화장실,서울 강남구 개포동 185,0,0,:~:,37.48844473,127.0723764,0,0
개포2동주민센터 개방화장실,서울 강남구 개포동 182,0,0,:~:,37.48978291,127.0690567,0,0
두댐이공원 개방화장실,서울 송파구 문정동 2,0,0,:~:,37.48936894,127.1320077,0,0
문정1동주민센터 개방화장실,서울 송파구 문정동 29-21,0,0,:~:,37.49009829,127.1241288,0,0
상동시장 공영주차장 화장실,경기 부천시 상동 244-5,0,0,:~:,37.49055328,126.7631977,0,0
구로주유소 개방화장실,서울 구로구 구로동 754-4,0,0,:~:,37.4910179,126.8835271,0,0
대림공원 개방화장실,서울 영등포구 대림동 870,0,0,:~:,37.4911474,126.9032203,0,0
보라매동주민센터 개방화장실,서울 관악구 봉천동 661,0,0,:~:,37.48817112,126.9326997,0,0
서초구보훈회관 개방화장실,서울 서초구 방배동 853-4,0,0,:~:,37.48960816,126.9913385,0,0
동국한방병원 개방화장실,서울 서초구 방배동 837-13,0,0,:~:,37.49022992,126.9923561,0,0
골든시네마 개방화장실,서울 동작구 사당동 147-53,0,0,:~:,37.48475962,126.9816289,0,0
유진주유소 개방화장실,서울 강남구 도곡동 515-2,0,0,:~:,37.48341988,127.0425937,0,0
늘벗근린공원 화장실,서울 강남구 대치동 501,0,0,:~:,37.48934278,127.0562971,0,0
늘벗공원 개방화장실,서울 강남구 대치동 501,0,0,:~:,37.48936801,127.0562971,0,0
그랑프리엔 개방화장실,서울 강남구 대치동 500,0,0,:~:,37.49070518,127.0561443,0,0
늘푸른공원 개방화장실,서울 강남구 일원동 690,0,0,:~:,37.48996873,127.0774379,0,0
대모산입구역 개방화장실,서울 강남구 일원동 700-1,0,0,:~:,37.49139165,127.0728247,0,0
늘푸른근린공원 화장실,서울 강남구 일원동 690,0,0,:~:,37.48952911,127.0773199,0,0
예지공원 개방화장실,서울 강남구 개포동 12-7,0,0,:~:,37.4918058,127.0733329,0,0
탄천 광평교 개방화장실,서울 강남구 수서동 99,0,0,:~:,37.48870618,127.1066501,0,0
숯내공원 개방화장실,서울 송파구 문정동 150-8,0,0,:~:,37.48956031,127.1105998,0,0
광평교 개방화장실,서울 송파구 가락동 616-1,0,0,:~:,37.48843026,127.109836,0,0
사이룩스오피스텔 개방화장실,서울 강남구 수서동 716,0,0,:~:,37.48838065,127.1039166,0,0
수서동주민센터 개방화장실,서울 강남구 수서동 718-2,0,0,:~:,37.48890952,127.1049588,0,0
강남스포츠문화센터 개방화장실,서울 강남구 수서동 718,0,0,:~:,37.48898855,127.1052574,0,0
문정2동주민센터 개방화장실,서울 송파구 문정동 150-38,0,0,:~:,37.4898773,127.1107812,0,0
훼미리공원 개방화장실,서울 송파구 문정동 150,0,0,:~:,37.49068801,127.1138241,0,0
송파청소년센터 개방화장실,서울 송파구 문정동 150-8,0,0,:~:,37.48972904,127.1113056,0,0
GS훼미리주유소 개방화장실,서울 송파구 문정동 150-21,0,0,:~:,37.49123614,127.1153526,0,0
훼밀리 근린공원 화장실,서울 송파구 문정동 150,0,0,:~:,37.49076412,127.1143195,0,0
목감천 목감교 개방화장실,서울 구로구 개봉동 372-1,0,0,:~:,37.49133395,126.8639463,0,0
구로3파출소 개방화장실,서울 구로구 구로동 256-1,0,0,:~:,37.48666091,126.89139,0,0
남문 개방화장실,서울 동작구 신대방동 722,0,0,:~:,37.49075375,126.9163104,0,0
우성스포츠센타 개방화장실,서울 동작구 신대방동 565-22,0,0,:~:,37.49225911,126.9098905,0,0
대림역 개방화장실,서울 영등포구 대림동 1050-40,0,0,:~:,37.49316041,126.8970119,0,0
남성역 개방화장실,서울 동작구 사당동 산 25-33,0,0,:~:,37.48444231,126.9716871,0,0
총신기사식당 개방화장실,서울 동작구 사당동 197-2,0,0,:~:,37.48914574,126.9655443,0,0
사당5동주민센터 개방화장실,서울 동작구 사당동 228-11,0,0,:~:,37.48562951,126.9669762,0,0
한웰빌딩 구소프트포럼빌딩 개방화장실,서울 강남구 도곡동 545-7,0,0,:~:,37.49144735,127.0388396,0,0
도곡정보문화도서관 개방화장실,서울 강남구 도곡동 892-6,0,0,:~:,37.48827937,127.0389691,0,0
도곡푸르지오102동 개방화장실,서울 강남구 도곡동 949-1,0,0,:~:,37.48788289,127.033191,0,0
대신증권 개방화장실,서울 강남구 도곡동 943,0,0,:~:,37.48937344,127.0321762,0,0
진양가스 개방화장실,서울 강남구 도곡동 552-4,0,0,:~:,37.49055813,127.035768,0,0
SK리더스뷰 개방화장실,서울 강남구 도곡동 168,0,0,:~:,37.4884235,127.0487567,0,0
서리풀공원 개방화장실,서울 서초구 서초동 산 160-24,0,0,:~:,37.49155015,126.99987,0,0
대신석유 서원주유소 개방화장실,서울 서초구 서초동 1719-1,0,0,:~:,37.49274824,127.00766,0,0
도곡1동경로당 개방화장실,서울 강남구 도곡동 950-10,0,0,:~:,37.48639192,127.0356077,0,0
세신타운 개방화장실,서울 송파구 거여동 293-1,0,0,:~:,37.48991045,127.1435909,0,0
송파구보건지소 개방화장실,서울 송파구 거여동 289-4,0,0,:~:,37.48978548,127.1426273,0,0
거여역 개찰구 밖 개방화장실,서울 송파구 거여동 20-14,0,0,:~:,37.49320402,127.1440145,0,0
일원까치공원 개방화장실,서울 강남구 일원동 712-4,0,0,:~:,37.49209118,127.088178,0,0
일원1동주민센터 개방화장실,서울 강남구 일원동 712-3,0,0,:~:,37.49183448,127.0880669,0,0
대청근린공원 화장실,서울 강남구 일원동 621,0,0,:~:,37.4923147,127.0831078,0,0
대청공원 개방화장실,서울 강남구 일원동 621,0,0,:~:,37.49229216,127.0831383,0,0
복사골공원 화장실,경기 부천시 중동 1212,0,0,:~:,37.49315496,126.7759132,0,0
거여동 공영주차장 개방화장실,서울 송파구 거여동 33-16,0,0,:~:,37.49226894,127.1503846,0,0
송파상운 개방화장실,서울 송파구 마천동 330-2,0,0,:~:,37.4906099,127.1575231,0,0
서울석유 풀페이주유소 개방화장실,서울 구로구 온수동 35-3,0,0,:~:,37.49099774,126.826685,0,0
시몬주유소 개방화장실,서울 구로구 온수동 9-12,0,0,:~:,37.49298045,126.8239722,0,0
온수역 7호선 개방화장실,서울 구로구 온수동 53-16,0,0,:~:,37.4920875,126.8233286,0,0
온수역 1호선 개방화장실,서울 구로구 온수동 51-7,0,0,:~:,37.49247238,126.8240367,0,0
고려대학교구로병원 개방화장실,서울 구로구 구로동 80,0,0,:~:,37.49228949,126.8847136,0,0
SK구로주유소 화장실,서울 구로구 구로동 685-500,0,0,:~:,37.49369837,126.8721697,0,0
SK구로주유소 개방화장실,서울 구로구 구로동 685-500,0,0,:~:,37.49370196,126.8721607,0,0
삼화주유소 개방화장실,서울 관악구 봉천동 726-10,0,0,:~:,37.49320421,126.9267381,0,0
청림동주민센터 개방화장실,서울 관악구 봉천동 1000,0,0,:~:,37.49183753,126.9586341,0,0
오송빌딩 개방화장실,서울 동작구 사당동 86-1,0,0,:~:,37.48924311,126.9820553,0,0
현대오일뱅크직영 방배현대주유소 개방화장실,서울 서초구 방배동 782-23,0,0,:~:,37.49283919,126.9831852,0,0
총신대입구역 개방화장실,서울 동작구 사당동 736-1,0,0,:~:,37.48807183,126.9822794,0,0
도곡로북10길공영노외주차장 개방화장실,서울 강남구 역삼동 795-25,0,0,:~:,37.49255738,127.0388831,0,0
농협중앙회 도곡동지점 개방화장실,서울 강남구 도곡동 544-5,0,0,:~:,37.49205222,127.0406627,0,0
대성빌딩 개방화장실,서울 서초구 서초동 1657-7,0,0,:~:,37.49250523,127.0144288,0,0
길도빌딩 개방화장실,서울 서초구 서초동 1713-4,0,0,:~:,37.49416692,127.0123801,0,0
양재천 영동6교 개방화장실,서울 강남구 개포동 12,0,0,:~:,37.49345311,127.0757589,0,0
극동교회 개방화장실,서울 강남구 대치동 511,0,0,:~:,37.49339154,127.0673276,0,0
대청경로당 개방화장실,서울 강남구 일원동 621,0,0,:~:,37.49319777,127.0829867,0,0
대청역 개방화장실,서울 강남구 일원동 700-9,0,0,:~:,37.49371917,127.0794772,0,0
"가락시장역 개찰구 안,밖 개방화장실",서울 송파구 가락동 184-23,0,0,:~:,37.49255372,127.1186837,0,0
개롱공원2놀이터 개방화장실,서울 송파구 가락동 195,0,0,:~:,37.49351927,127.1309397,0,0
서울주유소 화장실,서울 송파구 가락동 180-4,0,0,:~:,37.49324195,127.1363421,0,0
개롱공원1 관리동 개방화장실,서울 송파구 가락동 195,0,0,:~:,37.49346167,127.1300643,0,0
산성 개방화장실,서울 송파구 마천동 277-30,0,0,:~:,37.49092979,127.1581706,0,0
소나무언덕3호도서관 개방화장실,서울 송파구 마천동 325-5,0,0,:~:,37.49225714,127.1566932,0,0
마천청소년센터 개방화장실,서울 송파구 마천동 325-5,0,0,:~:,37.49233472,127.1566244,0,0
수궁동주민센터 개방화장실,서울 구로구 궁동 213-42,0,0,:~:,37.49389238,126.8314605,0,0
대성산업 오류동충전소 화장실,서울 구로구 오류동 74-8,0,0,:~:,37.49267599,126.837877,0,0
오류동역 개방화장실,서울 구로구 오류동 66,0,0,:~:,37.4943427,126.8444649,0,0
한국다양성연구소,서울 구로구 오류동 155-6,0,0,:~:,37.4911936,126.8423626,0,0
개봉역 개방화장실,서울 구로구 개봉동 415,0,0,:~:,37.49461289,126.8587239,0,0
대림2동공영 개방화장실,서울 영등포구 대림동 1072-25,0,0,:~:,37.49161049,126.8999439,0,0
보라매공원 동문화장실,서울 동작구 신대방동 722,0,0,:~:,37.49334011,126.9222804,0,0
중앙 개방화장실,서울 동작구 신대방동 722,0,0,:~:,37.49158524,126.9200139,0,0
사자암 개방화장실,서울 동작구 상도동 280,0,0,:~:,37.49274169,126.9371644,0,0
상도근린공원 개방화장실,서울 관악구 봉천동 산 103-61,0,0,:~:,37.49132992,126.94087,0,0
백운119안전센터 개방화장실,서울 동작구 상도동 106,0,0,:~:,37.49480284,126.9615839,0,0
한독주유소 개방화장실,서울 서초구 방배동 810-1,0,0,:~:,37.49273372,126.9908791,0,0
서초 타일시공공사보수 수리 타일하자보수전문타일공화장실욕실,서울 서초구 방배동 873-20,0,0,:~:,37.48838464,126.9920827,0,0
대검찰청 개방화장실,서울 서초구 서초동 1730-1,0,0,:~:,37.493935,127.0052356,0,0
대법원 개방화장실,서울 서초구 서초동 967,0,0,:~:,37.49232218,127.0054549,0,0
서초역 개방화장실,서울 서초구 서초동 1748-5,0,0,:~:,37.4918175,127.0075671,0,0
서초제일주유소 개방화장실,서울 서초구 서초동 1632-1,0,0,:~:,37.49058301,127.0225699,0,0
한진도곡주유소 구SK한국 개방화장실,서울 강남구 도곡동 546-3,0,0,:~:,37.49104228,127.0376837,0,0
대청프라자 개방화장실,서울 강남구 개포동 14-1,0,0,:~:,37.49419973,127.0776368,0,0
마루공원 화장실,서울 강남구 일원동 580,0,0,:~:,37.49487813,127.0817311,0,0
거마도서관 정보센터 개방화장실,서울 송파구 거여동 195-1,0,0,:~:,37.49355016,127.1468184,0,0
거여2동주민센터 개방화장실,서울 송파구 거여동 195-1,0,0,:~:,37.49354547,127.1469597,0,0
거여119안전센터 개방화장실,서울 송파구 마천동 307-11,0,0,:~:,37.49416736,127.1517951,0,0
개롱근린공원 화장실,서울 송파구 가락동 195,0,0,:~:,37.49348329,127.1300644,0,0
쌍용프라자상가 개방화장실,서울 송파구 가락동 140,0,0,:~:,37.49457722,127.1299633,0,0
인성복지관 개방화장실,서울 송파구 마천동 211-39,0,0,:~:,37.49397119,127.1550752,0,0
송파구보훈회관 개방화장실,서울 송파구 마천동 211-45,0,0,:~:,37.49367229,127.1555834,0,0
마천역 개찰구 밖 개방화장실,서울 송파구 마천동 307-4,0,0,:~:,37.49467125,127.1523208,0,0
송파쇼핑센터 개방화장실,서울 송파구 마천동 181,0,0,:~:,37.49506307,127.1510054,0,0
동선주유소 화장실,서울 구로구 오류동 77-10,0,0,:~:,37.4932824,126.8385587,0,0
오류동 미래빌라앞 개방화장실,서울 구로구 오류동 134-1,0,0,:~:,37.49246033,126.8409566,0,0
대신빌딩 개방화장실,서울 구로구 구로동 83-3,0,0,:~:,37.49468151,126.8883093,0,0
삼성디지털프라자 구로점 개방화장실,서울 구로구 구로동 103-10,0,0,:~:,37.49622828,126.8899603,0,0
동아주유소 화장실,서울 구로구 구로동 147-7,0,0,:~:,37.49086118,126.8931117,0,0
현대오일뱅크 직영 동작주유소 개방화장실,서울 동작구 상도동 121-21,0,0,:~:,37.49347388,126.9564428,0,0
숭실대역 개방화장실,서울 동작구 상도동 514,0,0,:~:,37.49580928,126.9540384,0,0
국사봉 개방화장실,서울 관악구 봉천동 산 116-3,0,0,:~:,37.49133448,126.9374732,0,0
동작이수사회복지관 개방화장실,서울 동작구 사당동 52-3,0,0,:~:,37.49312735,126.976873,0,0
남일교회 개방화장실,서울 동작구 사당동 127-22,0,0,:~:,37.48805329,126.9790863,0,0
사당2동주민센터 개방화장실,서울 동작구 사당동 105-12,0,0,:~:,37.48871646,126.9792489,0,0
매봉역 개방화장실,서울 강남구 도곡동 179-2,0,0,:~:,37.48696113,127.0465984,0,0
SK에너지 진달래주유소 개방화장실,서울 강남구 도곡동 543-2,0,0,:~:,37.49223918,127.0419519,0,0
뉴훼밀리1차오피스텔 개방화장실,서울 송파구 가락동 98-2,0,0,:~:,37.4942794,127.1184376,0,0
건너말공원 개방화장실,서울 송파구 가락동 110,0,0,:~:,37.49179779,127.1239349,0,0
서원주유소 개방화장실,서울 송파구 가락동 146-6,0,0,:~:,37.49584335,127.1247479,0,0
해양환경관리공단 개방화장실,서울 송파구 가락동 79-6,0,0,:~:,37.49454712,127.1209767,0,0
롯데마트 송파점 개방화장실,서울 송파구 문정동 150-2,0,0,:~:,37.49173385,127.1177404,0,0
구일역 개방화장실,서울 구로구 구로동 636-45,0,0,:~:,37.49647034,126.8701318,0,0
고척스카이돔 화장실,서울 구로구 고척동 63-6,0,0,:~:,37.49673791,126.8668631,0,0
한미석유구로그린주유소 개방화장실,서울 구로구 구로동 100-10,0,0,:~:,37.49642136,126.8883226,0,0
동아주유소 개방화장실,서울 구로구 구로동 147-7,0,0,:~:,37.49081441,126.8932022,0,0
구로구민회관 개방화장실,서울 구로구 구로동 102,0,0,:~:,37.49712174,126.8895926,0,0
다사랑공원 개방화장실,서울 영등포구 대림동 703-6,0,0,:~:,37.49283073,126.8992106,0,0
서문 개방화장실,서울 동작구 신대방동 722,0,0,:~:,37.49524613,126.918843,0,0
금성주유소 개방화장실,서울 동작구 상도동 103-1,0,0,:~:,37.49490369,126.9613893,0,0
방배본동주민센터 개방화장실,서울 서초구 방배동 774-9,0,0,:~:,37.49414182,126.9888276,0,0
남성주유소 개방화장실,서울 동작구 사당동 86-3,0,0,:~:,37.48867726,126.9819491,0,0
교대역 2호선 개방화장실,서울 서초구 서초동 1748-4,0,0,:~:,37.49387838,127.014316,0,0
신한국빌딩 개방화장실,서울 서초구 서초동 1699-3,0,0,:~:,37.49636167,127.0133665,0,0
서울중앙지방검찰청 개방화장실,서울 서초구 서초동 1724,0,0,:~:,37.49501424,127.0081317,0,0
대치1동주민센터 개방화장실,서울 강남구 대치동 646-2,0,0,:~:,37.49324573,127.0567523,0,0
청실종합상가 개방화장실,서울 강남구 대치동 626,0,0,:~:,37.49316527,127.0591405,0,0
도곡역 분당선 개방화장실,서울 강남구 대치동 600-6,0,0,:~:,37.49116238,127.0553067,0,0
도곡역 개방화장실,서울 강남구 도곡동 339-2,0,0,:~:,37.49086415,127.0553031,0,0
여천빌딩 개방화장실,서울 강남구 대치동 651,0,0,:~:,37.49218223,127.0573893,0,0
역삼푸른솔도서관 개방화장실,서울 강남구 역삼동 827-61,0,0,:~:,37.49649864,127.03203,0,0
도씨에빛2 개방화장실,서울 서초구 서초동 1328-11,0,0,:~:,37.49479842,127.0285916,0,0
한마음공원 개방화장실,서울 강남구 개포동 12-3,0,0,:~:,37.49603718,127.075792,0,0
은마종합상가 개방화장실,서울 강남구 대치동 316,0,0,:~:,37.49533599,127.063955,0,0
대청주유소,서울 강남구 일원동 624-8,0,0,:~:,37.49489796,127.0842777,0,0
가락119안전센터 개방화장실,서울 송파구 가락동 600,0,0,:~:,37.49652057,127.1134734,0,0
마천동2공영주차장 개방화장실,서울 송파구 마천동 364-5,0,0,:~:,37.49429858,127.1561931,0,0
마천동1공영주차장 개방화장실,서울 송파구 마천동 215,0,0,:~:,37.49544559,127.1554921,0,0
거여공원 화장실,서울 송파구 거여동 11,0,0,:~:,37.49626976,127.1420968,0,0
거여공원 개방화장실,서울 송파구 거여동 11,0,0,:~:,37.49623192,127.1420967,0,0
처음처럼주유소 화장실,서울 구로구 궁동 283-2,0,0,:~:,37.49740268,126.8289421,0,0
처음처럼주유소 개방화장실,서울 구로구 궁동 283-2,0,0,:~:,37.49739549,126.8289512,0,0
대림1동공영 개방화장실,서울 영등포구 대림동 834-1,0,0,:~:,37.49313909,126.9015984,0,0
구로다나병원 개방화장실,서울 구로구 개봉동 353-2,0,0,:~:,37.49696854,126.8568231,0,0
동작구민체육센터 개방화장실,서울 동작구 신대방동 460-1,0,0,:~:,37.49469324,126.9167267,0,0
약수작은도서관 개방화장실,서울 동작구 상도동 211-77,0,0,:~:,37.49788244,126.9474193,0,0
청남빌딩 개방화장실,서울 서초구 방배동 765-14,0,0,:~:,37.49468537,126.9832684,0,0
선천주유소 개방화장실,서울 서초구 방배동 765-8,0,0,:~:,37.49493043,126.983196,0,0
몽마르뜨공원 개방화장실,서울 서초구 반포동 산 59-1,0,0,:~:,37.49640292,127.0035554,0,0
서초경찰서 개방화장실,서울 서초구 서초동 1726-1,0,0,:~:,37.49573882,127.0051475,0,0
SK네트웍스 매봉주유소 개방화장실,서울 강남구 역삼동 784-7,0,0,:~:,37.49493712,127.0459068,0,0
대진근린공원 화장실,서울 강남구 개포동 13-1,0,0,:~:,37.49552564,127.0781991,0,0
가락종합사회복지관 개방화장실,서울 송파구 가락동 481-2,0,0,:~:,37.49551665,127.1069255,0,0
맛찬들왕소금구이 개방화장실,서울 송파구 가락동 75-17,0,0,:~:,37.4962306,127.1205904,0,0
정직한주유소 셀프 개방화장실,서울 송파구 거여동 19-4,0,0,:~:,37.4955763,127.1403223,0,0
앨리시안웨딩홀 개방화장실,서울 구로구 개봉동 143-1,0,0,:~:,37.49796182,126.8534534,0,0
SK에너지 개봉동주유소 개방화장실,서울 구로구 개봉동 226-1,0,0,:~:,37.49763965,126.8523232,0,0
구로소방서 개방화장실,서울 구로구 고척동 63-12,0,0,:~:,37.497792,126.8652012,0,0
정은주유소 화장실,서울 구로구 고척동 76-74,0,0,:~:,37.49816976,126.8646215,0,0
고척스카이돔 관리동 개방화장실,서울 구로구 고척동 63-6,0,0,:~:,37.49821221,126.8670867,0,0
고척스카이돔 동측 개방화장실,서울 구로구 고척동 66-42,0,0,:~:,37.49840161,126.8680623,0,0
신성주유소 개방화장실,서울 구로구 구로동 461-13,0,0,:~:,37.4951614,126.8823854,0,0
광진빌딩 개방화장실,서울 구로구 구로동 83-4,0,0,:~:,37.49481068,126.8886597,0,0
현대오일뱅크직영 신구로주유소 개방화장실,서울 구로구 구로동 106-5,0,0,:~:,37.4975712,126.8923738,0,0
대림제3동 주민센터 개방화장실,서울 영등포구 대림동 740-4,0,0,:~:,37.49828352,126.8980374,0,0
원지공원 개방화장실,서울 영등포구 대림동 690,0,0,:~:,37.49762085,126.8996384,0,0
참새공원 개방화장실,서울 동작구 대방동 407-47,0,0,:~:,37.49803411,126.9219069,0,0
놀이터 개방화장실,서울 동작구 신대방동 722,0,0,:~:,37.491573,126.9179288,0,0
한증막 개방화장실,서울 동작구 상도동 산 65-248,0,0,:~:,37.49914672,126.9477984,0,0
서울숭실대우체국 개방화장실,서울 동작구 상도동 511,0,0,:~:,37.49698638,126.9574414,0,0
살피재주유소 개방화장실,서울 동작구 상도동 468-1,0,0,:~:,37.49835987,126.9513906,0,0
반포4동주민센터 개방화장실,서울 서초구 반포동 74-7,0,0,:~:,37.49747967,127.0003076,0,0
국립중앙도서관 개방화장실,서울 서초구 반포동 산 60-1,0,0,:~:,37.49676244,127.0027819,0,0
한강에너지 개방화장실,서울 강남구 역삼동 734-15,0,0,:~:,37.49634857,127.0396428,0,0
대건빌딩 하나이비인후과 개방화장실,서울 강남구 역삼동 732-19,0,0,:~:,37.49791876,127.0429593,0,0
문산부인과 개방화장실,서울 송파구 가락동 94-3,0,0,:~:,37.49895688,127.1171682,0,0
송파웰츠타워 개방화장실,서울 송파구 가락동 77-4,0,0,:~:,37.49573256,127.1221298,0,0
한티역 개방화장실,서울 강남구 대치동 1011-28,0,0,:~:,37.4961136,127.0529322,0,0
진달래상가 개방화장실,서울 강남구 도곡동 538-1,0,0,:~:,37.49584249,127.0527195,0,0
상도1동주민센터 개방화장실,서울 동작구 상도동 437,0,0,:~:,37.49809384,126.95306,0,0
마천 개방화장실,서울 송파구 마천동 143-12,0,0,:~:,37.49756296,127.151318,0,0
구로구청 개방화장실,서울 구로구 구로동 435,0,0,:~:,37.49544752,126.8875234,0,0
구로성심병원 개방화장실,서울 구로구 고척동 76-189,0,0,:~:,37.49963856,126.8663423,0,0
동작 119안전센터 개방화장실,서울 동작구 신대방동 460-19,0,0,:~:,37.49467591,126.9177037,0,0
대양석유직영 보라매주유소 개방화장실,서울 관악구 봉천동 729-4,0,0,:~:,37.49156285,126.9271932,0,0
달마사 개방화장실,서울 동작구 흑석동 산 60-8,0,0,:~:,37.49915899,126.9609223,0,0
조달청 개방화장실,서울 서초구 반포동 520-3,0,0,:~:,37.49967807,127.0036234,0,0
서초2동주민센터 개방화장실,서울 서초구 서초동 1332-6,0,0,:~:,37.4920674,127.0249268,0,0
BNK디지털타워 개방화장실,서울 서초구 서초동 1321-11,0,0,:~:,37.49662646,127.0250821,0,0
중앙서초플라자 개방화장실,서울 서초구 서초동 1687-2,0,0,:~:,37.49610405,127.0193905,0,0
강남빌딩 개방화장실,서울 서초구 서초동 1321,0,0,:~:,37.49655806,127.0247383,0,0
강남역 지하상가 개방화장실,서울 강남구 역삼동 821,0,0,:~:,37.49858367,127.0280988,0,0
탄천유수지 개방화장실,서울 송파구 가락동 508,0,0,:~:,37.49687395,127.1003176,0,0
신화에너지 서울지점 개방화장실,서울 송파구 석촌동 239-8,0,0,:~:,37.49949017,127.1017302,0,0
천마공원 축구장 개방화장실,서울 송파구 마천동 산 2,0,0,:~:,37.50022191,127.1608037,0,0
행복한교회 개방화장실,서울 송파구 마천동 579,0,0,:~:,37.49842554,127.1559303,0,0
삼전종합사회복지관 개방화장실,서울 송파구 삼전동 172,0,0,:~:,37.49923267,127.0950079,0,0
한강에너지 퍼스트주유소 개방화장실,서울 송파구 석촌동 217-17,0,0,:~:,37.4993139,127.0970481,0,0
개봉1동주민센터 개방화장실,서울 구로구 개봉동 134-8,0,0,:~:,37.5002547,126.8511465,0,0
GS칼텍스 직영 신길점 개방화장실,서울 영등포구 신길동 3632-2,0,0,:~:,37.4990554,126.9087152,0,0
경덕주유소 개방화장실,서울 영등포구 신길동 4214,0,0,:~:,37.49839128,126.9197748,0,0
동작구민회관 개방화장실,서울 동작구 신대방동 722,0,0,:~:,37.49394045,126.9226914,0,0
도화공원 개방화장실,서울 동작구 상도동 244-50,0,0,:~:,37.49981898,126.9352869,0,0
동일석유동주충전소 개방화장실,서울 동작구 대방동 334,0,0,:~:,37.49949622,126.9286794,0,0
동작노인종합복지관 개방화장실,서울 동작구 대방동 335-10,0,0,:~:,37.50036688,126.9291558,0,0
상도3치안센터 개방화장실,서울 동작구 상도동 320-13,0,0,:~:,37.4999063,126.9303866,0,0
신대방2동주민센터 개방화장실,서울 동작구 신대방동 723,0,0,:~:,37.49845117,126.9245176,0,0
상도3동주민센터 개방화장실,서울 동작구 상도동 315-37,0,0,:~:,37.49912842,126.9313961,0,0
상도119안전센터 개방화장실,서울 동작구 상도동 324-21,0,0,:~:,37.49902639,126.9295099,0,0
동작구 공영화장실,서울 동작구 동작동 86-6,0,0,:~:,37.4990608,126.9843034,0,0
이수교 개방화장실,서울 동작구 동작동 86-6,0,0,:~:,37.49913287,126.9842683,0,0
캐피탈타워 개방화장실,서울 강남구 역삼동 736-1,0,0,:~:,37.49973063,127.0349355,0,0
LG에클라트오피스텔 개방화장실,서울 강남구 역삼동 736-24,0,0,:~:,37.4985593,127.0350074,0,0
서초소방서 개방화장실,서울 서초구 반포동 114-2,0,0,:~:,37.49878046,126.9920024,0,0
신반포주유소 개방화장실,서울 서초구 반포동 111-2,0,0,:~:,37.49838418,126.9949789,0,0
현대오일뱅크직영 팔레스주유소 개방화장실,서울 서초구 반포동 67-2,0,0,:~:,37.50013944,126.9991812,0,0
대치풍림빌딩 개방화장실,서울 강남구 대치동 507-1,0,0,:~:,37.49364298,127.0622981,0,0
윈플러스상가 개방화장실,서울 강남구 대치동 507,0,0,:~:,37.49334766,127.0618998,0,0
동하빌딩 개방화장실,서울 강남구 대치동 629,0,0,:~:,37.49274931,127.0585295,0,0
대치퍼스트빌딩 개방화장실,서울 강남구 대치동 507-2,0,0,:~:,37.49383003,127.0629801,0,0
삼전동공영주차장 개방화장실,서울 송파구 삼전동 175-8,0,0,:~:,37.50029327,127.0959773,0,0
가락1동 주민센터 개방화장실,서울 송파구 가락동 915,0,0,:~:,37.49645733,127.1098308,0,0
경찰병원역 개찰구 안 밖 개방화장실,서울 송파구 가락동 10-15,0,0,:~:,37.49560082,127.124052,0,0
제트라인DM주유소 화장실,서울 송파구 가락동 36-7,0,0,:~:,37.498534,127.1253732,0,0
마천시장 개방화장실,서울 송파구 마천동 140-2,0,0,:~:,37.49829914,127.1505686,0,0
마천동3공영주차장 개방화장실,서울 송파구 마천동 128-4,0,0,:~:,37.49611697,127.1498088,0,0
오금공원1관리동 개방화장실,서울 송파구 오금동 51,0,0,:~:,37.5004715,127.1316857,0,0
족구장제방앞 개방화장실,서울 구로구 구로동 621-9,0,0,:~:,37.50146885,126.8723601,0,0
고척교앞 개방화장실,서울 구로구 구로동 621-9,0,0,:~:,37.50144001,126.8723556,0,0
거리공원 등기소앞 개방화장실,서울 구로구 구로동 50,0,0,:~:,37.50116253,126.8903285,0,0
거리공원 해병대앞 개방화장실,서울 구로구 구로동 50,0,0,:~:,37.49976896,126.8916107,0,0
화원어린이공원 개방화장실,서울 구로구 구로동 478-1,0,0,:~:,37.49794173,126.8804133,0,0
한일가스산업 화장실,서울 구로구 구로동 600-6,0,0,:~:,37.5019432,126.8778691,0,0
대방주유소 개방화장실,서울 영등포구 신길동 623,0,0,:~:,37.50136152,126.9205497,0,0
서울동작우체국 개방화장실,서울 동작구 신대방동 361-2,0,0,:~:,37.4980502,126.9244807,0,0
상도4동주민센터 개방화장실,서울 동작구 상도동 202-58,0,0,:~:,37.49937527,126.941402,0,0
성문교회 개방화장실,서울 동작구 상도동 235-38,0,0,:~:,37.49880863,126.9397966,0,0
서초구민체육센터 개방화장실,서울 서초구 반포동 114-3,0,0,:~:,37.49884882,126.9904961,0,0
동광교회 개방화장실,서울 동작구 상도동 190-8,0,0,:~:,37.50185863,126.9348723,0,0
서울중앙지방법원 개방화장실,서울 서초구 서초동 1701-1,0,0,:~:,37.49800162,127.0122495,0,0
에쓰오일직영 개나리주유소 개방화장실,서울 강남구 역삼동 721-20,0,0,:~:,37.50078391,127.0431113,0,0
소모에너지엔테크놀러지 쎈트럴주유소 개방화장실,서울 강남구 대치동 913-18,0,0,:~:,37.50142209,127.0591425,0,0
오성빌딩 개방화장실,서울 강남구 대치동 921,0,0,:~:,37.49988676,127.0514738,0,0
대치4동경로당 개방화장실,서울 강남구 대치동 929-10,0,0,:~:,37.49982598,127.0581822,0,0
한티경로당 개방화장실,서울 강남구 대치동 899-25,0,0,:~:,37.50166712,127.0515293,0,0
대치역 개방화장실,서울 강남구 대치동 317-3,0,0,:~:,37.49456141,127.0634161,0,0
쌍용종합 상가 개방화장실,서울 강남구 대치동 66,0,0,:~:,37.4976139,127.0700116,0,0
탄천 탄천1교 개방화장실,서울 강남구 대치동 1-12,0,0,:~:,37.4997735,127.0801204,0,0
대진공원 개방화장실,서울 강남구 개포동 13-1,0,0,:~:,37.49606947,127.0787696,0,0
엄마손백화점 개방화장실,서울 송파구 석촌동 277-2,0,0,:~:,37.50137791,127.1076791,0,0
송파책박물관 개방화장실,서울 송파구 가락동 910,0,0,:~:,37.49903382,127.1043012,0,0
명품주유소 개방화장실,서울 강남구 역삼동 785-17,0,0,:~:,37.49411914,127.045558,0,0
역삼2문화센터 개방화장실,서울 강남구 역삼동 761-26,0,0,:~:,37.49597113,127.0467985,0,0
성내천 물놀이장 개방화장실,서울 송파구 오금동 135,0,0,:~:,37.50048587,127.1410915,0,0
송파소방서 개방화장실,서울 송파구 마천동 29-1,0,0,:~:,37.49979122,127.1425717,0,0
목련공원 개방화장실,서울 송파구 오금동 156,0,0,:~:,37.49897358,127.1391514,0,0
천마공원 안전공원 개방화장실,서울 송파구 마천동 산 2,0,0,:~:,37.50088776,127.1588023,0,0
부천중앙공원 화장실4,경기 부천시 중동 1177,0,0,:~:,37.49878295,126.7676817,0,0
부천자연생태공원 화장실,경기 부천시 춘의동 369-1,0,0,:~:,37.50235161,126.8196572,0,0
잣절약수터 입구 개방화장실,서울 구로구 개봉동 45-2,0,0,:~:,37.50198944,126.83968,0,0
오수배드민턴장 개방화장실,서울 구로구 궁동 산 10-49,0,0,:~:,37.50213934,126.83469,0,0
궁동생태공원 개방화장실,서울 구로구 궁동 42-2,0,0,:~:,37.50129206,126.8293856,0,0
개봉주유소 개방화장실,서울 구로구 개봉동 92-3,0,0,:~:,37.50193322,126.8468784,0,0
개봉제일교회 개방화장실,서울 구로구 개봉동 127-5,0,0,:~:,37.50205801,126.8493334,0,0
애경어린이공원 개방화장실,서울 구로구 구로동 501-22,0,0,:~:,37.50010837,126.884662,0,0
도곡렉슬상가 개방화장실,서울 강남구 도곡동 527-3,0,0,:~:,37.49534877,127.0526694,0,0
강남구 민자유치 대치주차장 개방화장실,서울 강남구 대치동 962-23,0,0,:~:,37.50184706,127.0597399,0,0
송파구의회 개방화장실,서울 송파구 삼전동 62-2,0,0,:~:,37.50238466,127.0935394,0,0
석촌동 고분군 개방화장실,서울 송파구 석촌동 248,0,0,:~:,37.50183541,127.1028598,0,0
삼전지구대 개방화장실,서울 송파구 삼전동 62-3,0,0,:~:,37.50270783,127.0927606,0,0
송파구민회관 개방화장실,서울 송파구 삼전동 62-2,0,0,:~:,37.50208211,127.0933004,0,0
잠실셀프주유소 개방화장실,서울 송파구 석촌동 295,0,0,:~:,37.50272464,127.1089522,0,0
송파우체국 개방화장실,서울 송파구 오금동 50-3,0,0,:~:,37.50248129,127.1279086,0,0
가락지구대 개방화장실,서울 송파구 가락동 37,0,0,:~:,37.49819886,127.1253365,0,0
물빛광장 앞 개방화장실,서울 송파구 오금동 75-4,0,0,:~:,37.50263041,127.1371361,0,0
상아주유소 개방화장실,서울 송파구 마천동 49-12,0,0,:~:,37.50005061,127.1477811,0,0
서서울정보고 후문 개방화장실,서울 구로구 궁동 35,0,0,:~:,37.5030021,126.828097,0,0
궁동저수지생태공원 화장실,서울 구로구 궁동 40-4,0,0,:~:,37.50191815,126.8286853,0,0
동작교육청 개방화장실,서울 동작구 상도동 175-1,0,0,:~:,37.50297893,126.9406754,0,0
상도역 개방화장실,서울 동작구 상도1동 702-1,0,0,:~:,37.5032093,126.947678,0,0
상도종합사회복지관 개방화장실,서울 동작구 상도1동 456,0,0,:~:,37.50251098,126.9496689,0,0
상도1동 개방화장실,서울 동작구 상도1동 633-23,0,0,:~:,37.50387623,126.9501905,0,0
탄천.양재천방문자센터 개방화장실,서울 강남구 대치동 3-3,0,0,:~:,37.50037551,127.0743907,0,0
은마주유소 개방화장실,서울 강남구 대치동 994,0,0,:~:,37.50012125,127.0671652,0,0
송파제일주유소 셀프 개방화장실,서울 송파구 석촌동 210-16,0,0,:~:,37.50172132,127.0971326,0,0
삼전동주민센터 개방화장실,서울 송파구 삼전동 62,0,0,:~:,37.50277018,127.0925379,0,0
천마공영주차장 개방화장실,서울 송파구 마천동 산 1-5,0,0,:~:,37.50028848,127.1548157,0,0
부천중앙공원 남자화장실,경기 부천시 중동 1177-1,0,0,:~:,37.50139486,126.7653529,0,0
부천중앙공원 여자화장실,경기 부천시 중동 1177-1,0,0,:~:,37.50131318,126.7659639,0,0
서울축산정육식당 개방화장실,서울 구로구 구로동 110-4,0,0,:~:,37.50102133,126.8896321,0,0
대청에너지 대청주유소 개방화장실,서울 영등포구 대림동 776-3,0,0,:~:,37.49854732,126.895747,0,0
근린공원주유소 화장실,서울 구로구 고척동 167-32,0,0,:~:,37.50519396,126.855466,0,0
고척119안전센터 개방화장실,서울 구로구 고척동 165-5,0,0,:~:,37.50493012,126.8548513,0,0
신길6동공영 개방화장실,서울 영등포구 신길동 3203,0,0,:~:,37.50247386,126.9111313,0,0
신풍역 개방화장실,서울 영등포구 신길동 3599,0,0,:~:,37.50011944,126.9098222,0,0
영등포구민체육센터 개방화장실,서울 영등포구 신길동 426-3,0,0,:~:,37.50053837,126.9062933,0,0
하나주유소 개방화장실,서울 영등포구 신길동 433-75,0,0,:~:,37.49907436,126.9053225,0,0
대림3동공영 개방화장실,서울 영등포구 대림동 745-1,0,0,:~:,37.49820501,126.900004,0,0
동작역 북쪽 개방화장실,서울 동작구 동작동 326,0,0,:~:,37.50306746,126.9779376,0,0
동작역 남쪽 개방화장실,서울 동작구 동작동 326,0,0,:~:,37.50306024,126.9779195,0,0
동작주차공원 개방화장실,서울 동작구 동작동 326,0,0,:~:,37.50401432,126.97746,0,0
사평로주유소 개방화장실,서울 서초구 서초동 1302,0,0,:~:,37.50327659,127.021497,0,0
교보타워 개방화장실,서울 서초구 서초동 1303-22,0,0,:~:,37.50375182,127.0240893,0,0
세계빌딩 개방화장실,서울 서초구 서초동 1317-31,0,0,:~:,37.49851394,127.0256889,0,0
GS석촌주유소 개방화장실,서울 송파구 석촌동 14-12,0,0,:~:,37.50282297,127.098559,0,0
제우빌딩 개방화장실,서울 송파구 석촌동 15,0,0,:~:,37.50289552,127.0990805,0,0
파크인수빌딩 개방화장실,서울 송파구 잠실동 250-5,0,0,:~:,37.50475965,127.0877405,0,0
돌마리도서관 개방화장실,서울 송파구 석촌동 265,0,0,:~:,37.50356281,127.1036843,0,0
오금역 3호선 개방화장실,서울 송파구 오금동 34-2,0,0,:~:,37.50241927,127.1286006,0,0
송파경찰서 개방화장실,서울 송파구 가락동 9,0,0,:~:,37.50196313,127.1271477,0,0
가락2동주민센터 개방화장실,서울 송파구 가락동 154,0,0,:~:,37.49867774,127.126614,0,0
마천중앙시장 상인회 개방화장실,서울 송파구 마천동 146-7,0,0,:~:,37.49839992,127.1513785,0,0
마천파출소 개방화장실,서울 송파구 마천동 127-7,0,0,:~:,37.49705064,127.1482037,0,0
갈산근린공원 C 개방화장실,서울 양천구 신정동 162-56,0,0,:~:,37.50591804,126.8666783,0,0
보건소 개방화장실,서울 구로구 구로동 109-4,0,0,:~:,37.50009842,126.8893304,0,0
구로아트밸리 개방화장실,서울 구로구 구로동 101,0,0,:~:,37.49655531,126.8889602,0,0
구로역 개방화장실,서울 구로구 구로동 585-3,0,0,:~:,37.50243343,126.8814918,0,0
현대오일뱅크직영 영등포제일셀프주유소 개방화장실,서울 영등포구 대림동 667-9,0,0,:~:,37.5023456,126.8994919,0,0
신길공원 개방화장실,서울 영등포구 신길동 341-3,0,0,:~:,37.50186769,126.9055904,0,0
대방어린이도서관 개방화장실,서울 동작구 대방동 379-2,0,0,:~:,37.50302778,126.9251497,0,0
노량진성남고후문 개방화장실,서울 동작구 대방동 375-1,0,0,:~:,37.5031094,126.9259888,0,0
상도지구대 개방화장실,서울 동작구 상도동 364-36,0,0,:~:,37.50414584,126.9391047,0,0
매일주유소 개방화장실,서울 동작구 상도동 190-1,0,0,:~:,37.50261555,126.9350029,0,0
흑석동 주민센터 개방화장실,서울 동작구 흑석동 335-2,0,0,:~:,37.50580025,126.9666088,0,0
현충원 개방화장실,서울 동작구 동작동 산 45-1,0,0,:~:,37.50469235,126.9752952,0,0
반포한강공원6 개방화장실,서울 서초구 반포동 1333-1,0,0,:~:,37.50547371,126.9812631,0,0
반포본동주민센터 개방화장실,서울 서초구 반포동 1313,0,0,:~:,37.50213895,126.9869038,0,0
고속터미널역 3번출구 개방화장실,서울 서초구 반포동 19-3,0,0,:~:,37.50489669,127.0038182,0,0
고속터미널역 4번출구 개방화장실,서울 서초구 반포동 19-3,0,0,:~:,37.50489669,127.0038182,0,0
고속터미널역 1번출구 개방화장실,서울 서초구 반포동 19-3,0,0,:~:,37.50489669,127.0038182,0,0
반포그린주유소 개방화장실,서울 서초구 반포동 56-2,0,0,:~:,37.50322399,127.0108525,0,0
성지하이츠 3차오피스텔 개방화장실,서울 강남구 역삼동 642-6,0,0,:~:,37.50162871,127.0360447,0,0
성지하이츠2차오피스텔 개방화장실,서울 강남구 역삼동 642-16,0,0,:~:,37.50082963,127.0356892,0,0
테헤란경로당 개방화장실,서울 강남구 역삼동 672-19,0,0,:~:,37.50460199,127.0390228,0,0
강남파이낸스플라자 개방화장실,서울 강남구 삼성동 142-43,0,0,:~:,37.50586643,127.0521678,0,0
다봉타워빌딩 개방화장실,서울 강남구 대치동 890-12,0,0,:~:,37.50507442,127.0522193,0,0
대치노인복지센터 개방화장실,서울 강남구 대치동 901-4,0,0,:~:,37.5030391,127.0541133,0,0
탄천둘레길 탄천1교 부근 개방화장실,서울 송파구 잠실동 351,0,0,:~:,37.50205967,127.0796512,0,0
아시아주유소 개방화장실,서울 송파구 잠실동 305-11,0,0,:~:,37.50459392,127.0773535,0,0
SK복지잠실충전소 개방화장실,서울 송파구 잠실동 336-9,0,0,:~:,37.50351961,127.0868739,0,0
오금공원2 테니스장 개방화장실,서울 송파구 오금동 51,0,0,:~:,37.50377967,127.1303536,0,0
오금역 5호선 개방화장실,서울 송파구 가락동 2-11,0,0,:~:,37.50240695,127.1274923,0,0
송파역 개방화장실,서울 송파구 가락동 459-4,0,0,:~:,37.49968254,127.1121708,0,0
고척근린공원 개방화장실,서울 구로구 고척동 산 9-14,0,0,:~:,37.5052366,126.8520617,0,0
구로구민체육센터 개방화장실,서울 구로구 고척동 산 9-14,0,0,:~:,37.50657879,126.8532602,0,0
고척2동주민센터 개방화장실,서울 구로구 고척동 339-2,0,0,:~:,37.50669712,126.8586797,0,0
삼성디지털 신길 개방화장실,서울 영등포구 신길동 4902-6,0,0,:~:,37.50665829,126.9113525,0,0
민원봉사실 개방화장실,서울 영등포구 신길동 산 159-1,0,0,:~:,37.50530197,126.9184283,0,0
평화주유소 개방화장실,서울 양천구 신정동 161-5,0,0,:~:,37.50584964,126.8707964,0,0
군지원센터 개방화장실,서울 영등포구 신길동 산 159-1,0,0,:~:,37.50555466,126.9203473,0,0
보라매역 개방화장실,서울 동작구 대방동 466-51,0,0,:~:,37.49991085,126.920471,0,0
장승백이역 개방화장실,서울 동작구 상도동 26-20,0,0,:~:,37.50466102,126.9387288,0,0
블루스톤 스포츠클럽 개방화장실,서울 동작구 흑석동 26-220,0,0,:~:,37.50677642,126.9679826,0,0
반포2동주민센터 개방화장실,서울 서초구 반포동 4-15,0,0,:~:,37.50457947,126.9944492,0,0
고속터미널역 개방화장실,서울 서초구 반포동 19-3,0,0,:~:,37.50489669,127.0038182,0,0
강남역 개방화장실,서울 강남구 역삼동 858,0,0,:~:,37.49816105,127.0282898,0,0
하나금융그룹 강남사옥 개방화장실,서울 강남구 역삼동 648-19,0,0,:~:,37.49969721,127.0320269,0,0
신논현역 개방화장실,서울 강남구 역삼동 800,0,0,:~:,37.50477957,127.0255124,0,0
상방교경로당 개방화장실,서울 강남구 역삼동 632-13,0,0,:~:,37.50239127,127.0318606,0,0
센트럴시티고속터미널 개방화장실,서울 서초구 반포동 19-5,0,0,:~:,37.50595893,127.0051675,0,0
역삼역 개방화장실,서울 강남구 역삼동 804,0,0,:~:,37.50071402,127.0366052,0,0
KT&G타워 개방화장실,서울 강남구 대치동 1002,0,0,:~:,37.50654374,127.0653353,0,0
소나무언덕잠실본동작은도서관 개방화장실,서울 송파구 잠실동 306,0,0,:~:,37.50305889,127.0769222,0,0
송파근린공원 개방화장실,서울 송파구 송파동 113,0,0,:~:,37.50634753,127.1099867,0,0
잠실에너지 개방화장실,서울 송파구 송파동 19-1,0,0,:~:,37.50631636,127.1066333,0,0
송이공원 화장실,서울 송파구 송파동 169,0,0,:~:,37.50115033,127.118574,0,0
오금공원3 다목적구장 개방화장실,서울 송파구 오금동 51,0,0,:~:,37.50515853,127.1316838,0,0
오금동 치킨갑 개방화장실,서울 송파구 오금동 142,0,0,:~:,37.50083994,127.1380579,0,0
서울곰두리체육센터 개방화장실,서울 송파구 오금동 51,0,0,:~:,37.50047083,127.1354664,0,0
대성주유소 개방화장실,서울 송파구 마천동 31,0,0,:~:,37.50005273,127.1431308,0,0
누에머리공원 개방화장실,서울 송파구 오금동 110,0,0,:~:,37.50309182,127.1423902,0,0
계남근린공원입구 개방화장실,서울 구로구 고척동 226-7,0,0,:~:,37.50763249,126.8543348,0,0
신정동주유소 개방화장실,서울 양천구 신정동 162-40,0,0,:~:,37.50637799,126.8711325,0,0
MS주유소 개방화장실,서울 영등포구 대림동 664-18,0,0,:~:,37.50129867,126.8974463,0,0
광림빌딩 개방화장실,서울 영등포구 대림동 688-2,0,0,:~:,37.49959457,126.898134,0,0
대림도서관 개방화장실,서울 영등포구 대림동 608-2,0,0,:~:,37.50431404,126.8960692,0,0
성락주유소 화장실,서울 영등포구 신길동 355-545,0,0,:~:,37.50382968,126.9028692,0,0
베뢰아국제대학원 개방화장실,서울 영등포구 대림동 665-10,0,0,:~:,37.50091733,126.8982317,0,0
서울중앙교회 개방화장실,서울 영등포구 대림동 651-7,0,0,:~:,37.50276134,126.8967906,0,0
대림에너지 개방화장실,서울 영등포구 신길동 355-545,0,0,:~:,37.50382245,126.9028511,0,0
흑석동주유소 개방화장실,서울 동작구 흑석동 9-46,0,0,:~:,37.50809922,126.965237,0,0
중앙대학교병원 개방화장실,서울 동작구 흑석동 224-1,0,0,:~:,37.50678777,126.9608041,0,0
한강공원반포5 개방화장실,서울 서초구 반포동 115-5,0,0,:~:,37.50773735,126.9919087,0,0
선릉이스타빌 개방화장실,서울 강남구 역삼동 708-20,0,0,:~:,37.50317152,127.0479294,0,0
선릉역 개방화장실,서울 강남구 삼성동 172-66,0,0,:~:,37.50449378,127.0489481,0,0
하이리빙빌딩 개방화장실,서울 강남구 대치동 890-16,0,0,:~:,37.50514455,127.0525586,0,0
프리마 쇼핑센터 개방화장실,서울 송파구 잠실동 101-1,0,0,:~:,37.5066006,127.0743279,0,0
선정경로당 개방화장실,서울 강남구 역삼동 683-19,0,0,:~:,37.508233,127.0442319,0,0
송파도서관 개방화장실,서울 송파구 오금동 51,0,0,:~:,37.49994349,127.1348954,0,0
안중근공원 화장실,경기 부천시 중동 1169,0,0,:~:,37.5042093,126.7598251,0,0
도당근린공원 화장실2,경기 부천시 도당동 산 66-29,0,0,:~:,37.5089624,126.7897595,0,0
SK행복충전 궁동충전소 개방화장실,서울 구로구 궁동 1-16,0,0,:~:,37.50678246,126.829165,0,0
대성산업디큐브주유소 개방화장실,서울 구로구 신도림동 361,0,0,:~:,37.50769694,126.8868445,0,0
한일가스산업 개방화장실,서울 구로구 구로동 600-6,0,0,:~:,37.50192155,126.8778511,0,0
신도림역 개방화장실,서울 구로구 신도림동 460-26,0,0,:~:,37.50828522,126.8915622,0,0
서울지방병무청 개방화장실,서울 영등포구 신길동 산 159-1,0,0,:~:,37.50555466,126.9203473,0,0
상도2동주민센터 개방화장실,서울 동작구 상도동 25-48,0,0,:~:,37.50545931,126.9423065,0,0
신동아리버파크상가 개방화장실,서울 동작구 노량진동 325,0,0,:~:,37.5071037,126.9442913,0,0
청화병원 개방화장실,서울 동작구 노량진동 311-8,0,0,:~:,37.50714492,126.9401518,0,0
반포1동주민센터 개방화장실,서울 서초구 반포동 20-48,0,0,:~:,37.50508701,127.0133591,0,0
스포월드주유소 개방화장실,서울 강남구 역삼동 900,0,0,:~:,37.50754645,127.0390922,0,0
GS칼텍스 GS타워주유소 개방화장실,서울 강남구 역삼동 668-13,0,0,:~:,37.50272151,127.036449,0,0
송파나루 카페고고스 개방화장실,서울 송파구 잠실동 47,0,0,:~:,37.50677482,127.0985066,0,0
소나무언덕2호작은도서관 개방화장실,서울 송파구 잠실동 44-4,0,0,:~:,37.5072621,127.0941593,0,0
석촌레이크빌 개방화장실,서울 송파구 석촌동 184-7,0,0,:~:,37.50678157,127.1053095,0,0
송파나루공원 공중화장실,서울 송파구 잠실동 47,0,0,:~:,37.50869821,127.0977343,0,0
웃말공원 화장실,서울 송파구 가락동 21,0,0,:~:,37.50191685,127.1232075,0,0
송파2동주민센터 개방화장실,서울 송파구 송파동 173,0,0,:~:,37.50233431,127.1167076,0,0
송파주유소 개방화장실,서울 송파구 송파동 174,0,0,:~:,37.50253289,127.1163415,0,0
송이공원 개방화장실,서울 송파구 송파동 169,0,0,:~:,37.50129778,127.1188841,0,0
한화건설 송파점 개방화장실,서울 송파구 송파동 121,0,0,:~:,37.50501067,127.1144769,0,0
서부티엔디 개방화장실,서울 양천구 신정동 1315,0,0,:~:,37.50922633,126.8423722,0,0
갈산도서관 개방화장실,서울 양천구 신정동 337-9,0,0,:~:,37.50886144,126.8673121,0,0
SK에너지 신평주유소 개방화장실,서울 양천구 신정동 209-6,0,0,:~:,37.50939452,126.866239,0,0
갈산공원 분수광장 개방화장실,서울 양천구 신정동 163-55,0,0,:~:,37.50831268,126.868883,0,0
인라인스케이트장제방 개방화장실,서울 구로구 신도림동 285-35,0,0,:~:,37.50971735,126.8764132,0,0
신도림치안센터 개방화장실,서울 구로구 신도림동 390-68,0,0,:~:,37.50764958,126.8808332,0,0
도림초교공영 개방화장실,서울 영등포구 신길동 285-1,0,0,:~:,37.50793798,126.9069988,0,0
병무연수원 개방화장실,서울 영등포구 신길동 산 159-1,0,0,:~:,37.50594546,126.9199884,0,0
노량진 백로공원 개방화장실,서울 동작구 상도동 362-46,0,0,:~:,37.50678951,126.9359221,0,0
서울 중앙대 우체국 개방화장실,서울 동작구 흑석동 221,0,0,:~:,37.50602342,126.9573437,0,0
절고개 개방화장실,서울 동작구 상도1동 508,0,0,:~:,37.50707097,126.9518283,0,0
노량진근린공원 고구동산 개방화장실,서울 동작구 본동 126-450,0,0,:~:,37.50866611,126.9550451,0,0
본동 개방화장실,서울 동작구 본동 126-450,0,0,:~:,37.5088604,126.9541786,0,0
반포한강공원4 개방화장실,서울 서초구 반포동 115-5,0,0,:~:,37.50877455,126.9944014,0,0
반포한강공원7 개방화장실,서울 동작구 흑석동 263,0,0,:~:,37.50961642,126.9649208,0,0
원불교앞 개방화장실,서울 동작구 흑석동 263,0,0,:~:,37.50962362,126.9649151,0,0
서울흑석동우체국 개방화장실,서울 동작구 흑석동 101-3,0,0,:~:,37.50836145,126.9624093,0,0
강남터미널 1구역 지하상가 개방화장실,서울 서초구 잠원동 68-17,0,0,:~:,37.50621212,127.0050352,0,0
강남터미널 2구역 지하상가 개방화장실,서울 서초구 잠원동 68-17,0,0,:~:,37.50621212,127.0050352,0,0
대성산업직영 터미널고속주유소 개방화장실,서울 서초구 반포동 19-6,0,0,:~:,37.50691468,127.0087358,0,0
롯데캐슬상가 개방화장실,서울 강남구 대치동 893,0,0,:~:,37.50487694,127.0564965,0,0
영광빌딩 개방화장실,서울 강남구 대치동 943-16,0,0,:~:,37.5060858,127.058929,0,0
채널리저브 개방화장실,서울 강남구 삼성동 144-14,0,0,:~:,37.50797612,127.05518,0,0
신도빌딩 구 신도리코 개방화장실,서울 강남구 대치동 943-27,0,0,:~:,37.50655753,127.0597075,0,0
성일빌딩 개방화장실,서울 송파구 잠실동 251-5,0,0,:~:,37.50562476,127.0887583,0,0
레이크팰리스 종합상가 A동 개방화장실,서울 송파구 잠실동 44-3,0,0,:~:,37.50756819,127.0923323,0,0
잠실119안전센터 개방화장실,서울 송파구 잠실동 44-5,0,0,:~:,37.50727591,127.093921,0,0
SK금성주유소 개방화장실,서울 강남구 삼성동 169-17,0,0,:~:,37.50985956,127.065112,0,0
홍우빌딩 개방화장실,서울 강남구 대치동 945-1,0,0,:~:,37.5079001,127.0613316,0,0
청호빌딩 개방화장실,서울 송파구 석촌동 174-12,0,0,:~:,37.50578965,127.1062174,0,0
석촌동주민센터 개방화장실,서울 송파구 석촌동 265,0,0,:~:,37.50354839,127.1036979,0,0
일조빌딩 개방화장실,서울 송파구 송파동 146-2,0,0,:~:,37.50680822,127.116278,0,0
오금현대아파트상가 개방화장실,서울 송파구 오금동 43,0,0,:~:,37.50526091,127.1262168,0,0
서울병원 개방화장실,서울 송파구 가락동 2,0,0,:~:,37.50390469,127.1247081,0,0
마천공원 개방화장실,서울 송파구 마천동 11,0,0,:~:,37.50165782,127.1457542,0,0
도림동주민센타분소 개방화장실,서울 영등포구 도림동 75,0,0,:~:,37.50996606,126.9080516,0,0
하늘마루타운 개방화장실,서울 동작구 대방동 354-1,0,0,:~:,37.50965426,126.9245007,0,0
현대자동차정비 개방화장실,서울 동작구 상도동 29-4,0,0,:~:,37.50505645,126.9439581,0,0
동작문화복지센터 개방화장실,서울 동작구 상도동 176-3,0,0,:~:,37.50462251,126.9409591,0,0
한강공원반포3 개방화장실,서울 서초구 반포동 115-5,0,0,:~:,37.51027303,126.9977945,0,0
강남터미널 3구역 지하상가 개방화장실,서울 서초구 잠원동 68-17,0,0,:~:,37.50621212,127.0050352,0,0
반포역 개방화장실,서울 서초구 잠원동 103,0,0,:~:,37.50811819,127.0114776,0,0
강남구치매지원센터 및 공영주차장 개방화장실,서울 강남구 삼성동 113-26,0,0,:~:,37.51030449,127.0463776,0,0
중소기업정보관 개방화장실,서울 송파구 잠실동 50-3,0,0,:~:,37.51039599,127.0722879,0,0
민성빌딩 개방화장실,서울 송파구 잠실동 222-5,0,0,:~:,37.50696097,127.0798917,0,0
아시아선수촌A동상가 개방화장실,서울 송파구 잠실동 85,0,0,:~:,37.50860354,127.0771201,0,0
종합운동장역 개방화장실,서울 송파구 잠실동 122,0,0,:~:,37.51096478,127.0733426,0,0
덕명빌딩 개방화장실,서울 강남구 삼성동 170-9,0,0,:~:,37.51014737,127.0660397,0,0
송파나루 더다이닝 개방화장실,서울 송파구 잠실동 47,0,0,:~:,37.51033338,127.1011285,0,0
쉼빌딩 개방화장실,서울 송파구 오금동 119-9,0,0,:~:,37.50361913,127.1399404,0,0
연의근린공원 개방화장실,서울 양천구 신정동 1320-9,0,0,:~:,37.51169116,126.8342425,0,0
안양천 오금교입구 개방화장실,서울 양천구 신정동 871-17,0,0,:~:,37.50993914,126.8731464,0,0
신도림역 1호선 개방화장실,서울 구로구 신도림동 460-26,0,0,:~:,37.50893019,126.891403,0,0
신정3동넓은들민원센터 개방화장실,서울 양천구 신정동 1287-5,0,0,:~:,37.51139487,126.8415702,0,0
검사장 개방화장실,서울 영등포구 신길동 산 159-1,0,0,:~:,37.50529384,126.9183956,0,0
본관 개방화장실,서울 영등포구 신길동 산 159-1,0,0,:~:,37.50520736,126.9184205,0,0
효사정 개방화장실,서울 동작구 흑석동 141-2,0,0,:~:,37.51058343,126.9627385,0,0
본동종합사회복지관 개방화장실,서울 동작구 본동 16-3,0,0,:~:,37.51057964,126.9569158,0,0
영동경로당 개방화장실,서울 강남구 논현동 263-23,0,0,:~:,37.51168036,127.0387777,0,0
선정릉역 분당선 개방화장실,서울 강남구 삼성동 111-114,0,0,:~:,37.51020361,127.0439436,0,0
파크랜드빌딩 개방화장실,서울 강남구 논현동 237-11,0,0,:~:,37.50892362,127.0377662,0,0
잠실종합사회복지관 개방화장실,서울 송파구 잠실동 188-1,0,0,:~:,37.5105621,127.0827752,0,0
잠실트리지움상가 개방화장실,서울 송파구 잠실동 35-2,0,0,:~:,37.51064254,127.0862091,0,0
잠실지구대 개방화장실,서울 송파구 잠실동 19-5,0,0,:~:,37.51209604,127.0821649,0,0
HD현대오일뱅크직영 올림픽셀프주유소 개방화장실,서울 송파구 오금동 4,0,0,:~:,37.50977594,127.1319,0,0
백토공원 개방화장실,서울 송파구 오금동 6,0,0,:~:,37.50811601,127.1321493,0,0
오금가스충전소 개방화장실,서울 송파구 오금동 31-4,0,0,:~:,37.50623978,127.1316416,0,0
구립양천어르신요양센터 개방화장실,서울 양천구 신정동 1321-7,0,0,:~:,37.5129558,126.827072,0,0
서울창업카페 양천신정점 개방화장실,서울 양천구 신정동 1320-8,0,0,:~:,37.51286485,126.8346618,0,0
양천노인종합복지관 개방화장실,서울 양천구 신정동 325-3,0,0,:~:,37.51048836,126.8585232,0,0
행촌주유소 개방화장실,서울 영등포구 신길동 298-34,0,0,:~:,37.50861492,126.9062244,0,0
한강공원반포2 개방화장실,서울 서초구 잠원동 122-1,0,0,:~:,37.51318598,127.0023086,0,0
반포3동주민센터 개방화장실,서울 서초구 잠원동 71-7,0,0,:~:,37.51201958,127.0055527,0,0
논현빌딩 개방화장실,서울 서초구 잠원동 37-9,0,0,:~:,37.51133174,127.0205899,0,0
동화히스토리 개방화장실,서울 강남구 논현동 122-8,0,0,:~:,37.51068789,127.023466,0,0
논현역 개방화장실,서울 강남구 논현동 279-67,0,0,:~:,37.5111946,127.0216395,0,0
논현경로당 개방화장실,서울 강남구 논현동 150-5,0,0,:~:,37.51121798,127.0300728,0,0
동하힐탑 셀프주유소 개방화장실,서울 강남구 논현동 221,0,0,:~:,37.51072713,127.0327192,0,0
송산빌딩 개방화장실,서울 강남구 역삼동 651,0,0,:~:,37.50743322,127.0352897,0,0
103호 잠실야구장 개방화장실,서울 송파구 잠실동 10,0,0,:~:,37.51200656,127.0729839,0,0
잠실야구장 개방화장실,서울 송파구 잠실동 10,0,0,:~:,37.51300355,127.0722067,0,0
제2수영장 체육공원 학생체육관앞 개방화장실,서울 송파구 잠실동 10,0,0,:~:,37.51246598,127.0759908,0,0
송파나루 동호휴게시설 1층 개방화장실,서울 송파구 신천동 32,0,0,:~:,37.51169891,127.1036504,0,0
지에스이앤알직영 서울주유소 개방화장실,서울 양천구 신정동 1294-6,0,0,:~:,37.51056138,126.8476831,0,0
넘은들근린공원 개방화장실,서울 양천구 신정동 1286,0,0,:~:,37.5124038,126.8407571,0,0
계남공원A 개방화장실,서울 양천구 신정동 521,0,0,:~:,37.51358784,126.8455957,0,0
거리공원 화장실2,서울 구로구 구로동 50,0,0,:~:,37.50230065,126.8895171,0,0
시골마루 개방화장실,서울 구로구 구로동 546-3,0,0,:~:,37.5023465,126.888454,0,0
안양천 오금인라인스케이트장 앞 개방화장실,서울 양천구 신정동 871-6,0,0,:~:,37.51284693,126.875924,0,0
c구장 축구장 제방위 개방화장실,서울 구로구 신도림동 271-86,0,0,:~:,37.51420173,126.8799847,0,0
도림주유소 개방화장실,서울 영등포구 도림동 243-2,0,0,:~:,37.50775945,126.9002175,0,0
도림동공영 개방화장실,서울 영등포구 도림동 226-13,0,0,:~:,37.50829342,126.8966925,0,0
광야교회 뒤 개방화장실,서울 영등포구 영등포동 618-50,0,0,:~:,37.51344843,126.9068879,0,0
공공화장실,서울 영등포구 문래동2가 14-85,0,0,:~:,37.51367533,126.893889,0,0
노들나루공원 개방화장실,서울 동작구 본동 258-1,0,0,:~:,37.51371387,126.9535569,0,0
대성산업 노량진주유소 개방화장실,서울 동작구 노량진동 148-8,0,0,:~:,37.51355072,126.9450172,0,0
한주실업빌딩 이그잼 개방화장실,서울 동작구 노량진동 114-5,0,0,:~:,37.51339434,126.9439462,0,0
고속터미널역 안전관리실 옆 개방화장실,서울 서초구 반포동 19-11,0,0,:~:,37.50492638,127.0049503,0,0
세홍 구 프라임빌딩 개방화장실,서울 강남구 논현동 278-4,0,0,:~:,37.51040664,127.0431293,0,0
팍스타워 개방화장실,서울 강남구 논현동 231-9,0,0,:~:,37.50990784,127.0367183,0,0
삼성역 개방화장실,서울 강남구 삼성동 172-66,0,0,:~:,37.50885876,127.0630572,0,0
롯데하이마트 잠실점 개방화장실,서울 송파구 잠실동 40-1,0,0,:~:,37.51166824,127.0962429,0,0
롯데마트 제타플렉스점 개방화장실,서울 송파구 잠실동 40-1,0,0,:~:,37.51171041,127.0964647,0,0
금성빌라상가 개방화장실,서울 송파구 방이동 136-13,0,0,:~:,37.51112266,127.1185672,0,0
방이동고분군 개방화장실,서울 송파구 방이동 125,0,0,:~:,37.50792997,127.1180916,0,0
송파동공영주차장 개방화장실,서울 송파구 송파동 128,0,0,:~:,37.50707062,127.1132858,0,0
SK정유 남성주유소 개방화장실,서울 송파구 방이동 149-3,0,0,:~:,37.51261557,127.1140406,0,0
송파나루 관리동 임시 개방화장실,서울 송파구 신천동 32,0,0,:~:,37.5121539,127.1077048,0,0
송파여성문화회관 개방화장실,서울 송파구 송파동 113-2,0,0,:~:,37.50589813,127.1097644,0,0
롯데백화점 에비뉴엘월드타워점 개방화장실,서울 송파구 신천동 29,0,0,:~:,37.51291415,127.1018276,0,0
킹스스크린골프 개방화장실,서울 송파구 오금동 19,0,0,:~:,37.50843331,127.1279187,0,0
CJ푸드빌빕스대방점 개방화장실,서울 동작구 대방동 341-3,0,0,:~:,37.51226887,126.9257649,0,0
신길1동 주민센터 개방화장실,서울 영등포구 신길동 465-1,0,0,:~:,37.51117044,126.9214227,0,0
영등포본동제2공영 개방화장실,서울 영등포구 신길동 186-355,0,0,:~:,37.51332052,126.9140592,0,0
영등포본동제1공영 개방화장실,서울 영등포구 영등포동 592-10,0,0,:~:,37.51439804,126.9091399,0,0
열림교회 개방화장실,서울 동작구 대방동 501-1,0,0,:~:,37.508395,126.9264699,0,0
대방역앞 개방화장실,서울 영등포구 신길동 4203,0,0,:~:,37.51295305,126.9262721,0,0
노량진근린공원 화장실2,서울 동작구 대방동 520,0,0,:~:,37.50770043,126.9281129,0,0
한강공원반포1 개방화장실,서울 서초구 잠원동 122-1,0,0,:~:,37.51318327,127.0024533,0,0
잠원동주민센터 개방화장실,서울 서초구 잠원동 58-27,0,0,:~:,37.51496195,127.013958,0,0
제2수영장 체육공원 파크골프장앞 개방화장실,서울 송파구 잠실동 10,0,0,:~:,37.51304756,127.0767186,0,0
잠실주경기장 남직문외곽 개방화장실,서울 송파구 잠실동 10,0,0,:~:,37.51481825,127.0720795,0,0
백제고분로주유소 개방화장실,서울 송파구 방이동 109-6,0,0,:~:,37.51104709,127.1110296,0,0
올림픽파크 동부센트레빌 개방화장실,서울 송파구 오금동 615,0,0,:~:,37.5102799,127.1275215,0,0
오륜테니스장 개방화장실,서울 송파구 방이동 439-8,0,0,:~:,37.51268674,127.1407808,0,0
양천중앙도서관 개방화장실,서울 양천구 신정동 1319-4,0,0,:~:,37.51371242,126.8338229,0,0
연의생활체육공원 개방화장실,서울 양천구 신정동 1319-1,0,0,:~:,37.51429004,126.8332414,0,0
계남다목적체육관 개방화장실,서울 양천구 신정동 521,0,0,:~:,37.51308778,126.8504966,0,0
양천구청역 개방화장실,서울 양천구 신정동 276-7,0,0,:~:,37.51269198,126.8660521,0,0
계남공원B 11단지 옆 개방화장실,서울 양천구 신정동 산 102,0,0,:~:,37.50957365,126.8561271,0,0
계남근린공원 화장실,서울 양천구 신정동 산 102,0,0,:~:,37.50962752,126.8559687,0,0
갈산공원 교통안전교육장 개방화장실,서울 양천구 신정동 163-55,0,0,:~:,37.50943119,126.8700347,0,0
도림천역 개방화장실,서울 구로구 신도림동 323-16,0,0,:~:,37.51445037,126.8826401,0,0
철공소공단 개방화장실,서울 영등포구 문래동2가 14-44,0,0,:~:,37.51391645,126.894504,0,0
센터플러스빌딩 개방화장실,서울 영등포구 문래동1가 39,0,0,:~:,37.51206339,126.8968819,0,0
철제상가 개방화장실,서울 영등포구 문래동3가 4-18,0,0,:~:,37.51517074,126.9019224,0,0
유한양행 개방화장실,서울 동작구 대방동 49-6,0,0,:~:,37.51277924,126.9340225,0,0
노량진지구대 개방화장실,서울 동작구 대방동 68-55,0,0,:~:,37.51114532,126.9333124,0,0
노량진1동주민센터 개방화장실,서울 동작구 노량진동 84-100,0,0,:~:,37.51226355,126.9420072,0,0
장성빌딩 개방화장실,서울 동작구 노량진동 312-6,0,0,:~:,37.50782938,126.9395586,0,0
9호선노량진역 B1 좌 개방화장실,서울 동작구 노량진동 60-11,0,0,:~:,37.51357121,126.9408072,0,0
대방종합사회복지관 개방화장실,서울 동작구 대방동 503,0,0,:~:,37.51017399,126.9301079,0,0
한강공원이촌6 개방화장실,서울 용산구 서빙고동 291-2,0,0,:~:,37.51619016,126.9872407,0,0
JS강남웨딩문화원 개방화장실,서울 서초구 잠원동 27-2,0,0,:~:,37.51440978,127.0193692,0,0
잠원역 개방화장실,서울 서초구 잠원동 100-1,0,0,:~:,37.51280706,127.0109942,0,0
잠실2동주민센터 개방화장실,서울 송파구 잠실동 22-7,0,0,:~:,37.51188419,127.0885587,0,0
송파나루 놀이마당 개방화장실,서울 송파구 잠실동 47,0,0,:~:,37.50868649,127.0977388,0,0
상현상사 개방화장실,서울 강남구 논현동 207,0,0,:~:,37.51377294,127.0312004,0,0
마샬빌딩 개방화장실,서울 강남구 논현동 218-11,0,0,:~:,37.51281227,127.0351011,0,0
도당근린공원 화장실,경기 부천시 도당동 산 25-5,0,0,:~:,37.5164214,126.7910552,0,0
새금성교회 개방화장실,서울 양천구 신정동 1322-6,0,0,:~:,37.51449626,126.8287538,0,0
영등포역 지하상가 개방화장실,서울 영등포구 영등포동3가 33,0,0,:~:,37.51678899,126.9064268,0,0
영등포공원 화장실,서울 영등포구 영등포동 582-3,0,0,:~:,37.51562217,126.9122785,0,0
영등포본동주민센터 개방화장실,서울 영등포구 영등포동 592-70,0,0,:~:,37.51466487,126.9093161,0,0
한강공원이촌8 개방화장실,서울 용산구 이촌동 346-1,0,0,:~:,37.51560566,126.977038,0,0
한강공원이촌9 개방화장실,서울 용산구 이촌동 302-135,0,0,:~:,37.5167796,126.9724995,0,0
이촌한강공원 화장실,서울 용산구 이촌동 302-135,0,0,:~:,37.51683006,126.9724859,0,0
노들역 9호선 개방화장실,서울 동작구 본동 475-1,0,0,:~:,37.51278023,126.9530643,0,0
사육신역사관 개방화장실,서울 동작구 노량진동 152-3,0,0,:~:,37.51412626,126.9485662,0,0
학동근린공원 화장실,서울 강남구 논현동 26,0,0,:~:,37.51629708,127.0256724,0,0
학동공원 개방화장실,서울 강남구 논현동 26,0,0,:~:,37.51548538,127.0251869,0,0
논현1문화센터 개방화장실,서울 강남구 논현동 133-13,0,0,:~:,37.51149588,127.0285165,0,0
헤리츠타워 개방화장실,서울 강남구 논현동 215,0,0,:~:,37.51322144,127.0315033,0,0
강남논현데이케어센터 개방화장실,서울 강남구 논현동 80-11,0,0,:~:,37.51641848,127.0304278,0,0
백영삼릉빌딩 개방화장실,서울 강남구 삼성동 37-22,0,0,:~:,37.51101493,127.0452289,0,0
삼보주유소 개방화장실,서울 강남구 삼성동 38-21,0,0,:~:,37.51152234,127.0471701,0,0
삼성2문화센터 개방화장실,서울 강남구 삼성동 38-34,0,0,:~:,37.51120206,127.0459484,0,0
천해빌딩 개방화장실,서울 강남구 삼성동 144,0,0,:~:,37.507807,127.0545827,0,0
향군회관A동 개방화장실,서울 송파구 신천동 7-29,0,0,:~:,37.51661686,127.1012591,0,0
롯데하이마트 월드타워점 개방화장실,서울 송파구 신천동 29,0,0,:~:,37.51394038,127.1049339,0,0
삼성1문화센터 개방화장실,서울 강남구 삼성동 161-2,0,0,:~:,37.51435063,127.0625935,0,0
쌍용플래티넘 개방화장실,서울 강남구 삼성동 117,0,0,:~:,37.51238166,127.0520208,0,0
올림픽공원-P1주차장 개방화장실,서울 송파구 방이동 88,0,0,:~:,37.5144331,127.1254009,0,0
올림픽공원-남2문 개방화장실,서울 송파구 방이동 88,0,0,:~:,37.51499595,127.1222245,0,0
한성백제박물관 개방화장실,서울 송파구 방이동 88-20,0,0,:~:,37.51557154,127.1206148,0,0
4번해마루축구장 개방화장실,서울 양천구 신정동 871-3,0,0,:~:,37.51771261,126.8779113,0,0
신목종합사회복지관 개방화장실,서울 양천구 신정동 1278-1,0,0,:~:,37.51693866,126.8761875,0,0
영롱이인라인 개방화장실,서울 영등포구 문래동5가 31,0,0,:~:,37.51780942,126.8818453,0,0
건강힐링문화관 개방화장실,서울 양천구 신월동 1077-2,0,0,:~:,37.51767506,126.8457999,0,0
한일주유소 개방화장실,서울 영등포구 문래동3가 76-3,0,0,:~:,37.51695485,126.8897987,0,0
문래동공영 개방화장실,서울 영등포구 문래동5가 2,0,0,:~:,37.51663235,126.8879531,0,0
대륭빌딩 개방화장실,서울 영등포구 문래동5가 2,0,0,:~:,37.51662872,126.887926,0,0
문래도서관 개방화장실,서울 영등포구 문래동3가 98,0,0,:~:,37.51685133,126.8908757,0,0
세지 개방화장실,서울 영등포구 문래동6가 1-3,0,0,:~:,37.5174942,126.8884676,0,0
모드니주유소 개방화장실,서울 영등포구 문래동3가 8-7,0,0,:~:,37.51475536,126.9008235,0,0
신길역 1호선 개방화장실,서울 영등포구 신길동 42-7,0,0,:~:,37.5170487,126.9176102,0,0
SK에너지 신길동주유소 개방화장실,서울 영등포구 신길동 50-8,0,0,:~:,37.515285,126.9169923,0,0
매봉주유소 개방화장실,서울 영등포구 신길동 100-10,0,0,:~:,37.51308927,126.9183079,0,0
신사역 개방화장실,서울 강남구 신사동 667,0,0,:~:,37.51642787,127.0202792,0,0
지에스칼텍스남서울주유소 개방화장실,서울 서초구 잠원동 13-6,0,0,:~:,37.5161479,127.0188538,0,0
신사미타워 개방화장실,서울 강남구 신사동 501,0,0,:~:,37.51685683,127.0197906,0,0
잠실새내역 개방화장실,서울 송파구 잠실동 21,0,0,:~:,37.51161571,127.0860949,0,0
잠실새내역 개찰구 밖 개방화장실,서울 송파구 잠실동 33,0,0,:~:,37.51156685,127.0863742,0,0
장미상가 B 개방화장실,서울 송파구 신천동 7,0,0,:~:,37.51782193,127.1018184,0,0
대우유토피아 개방화장실,서울 송파구 방이동 22,0,0,:~:,37.51539685,127.1074436,0,0
동성빌딩 개방화장실,서울 송파구 방이동 64-1,0,0,:~:,37.51451623,127.1087997,0,0
몽촌토성역 개찰구 밖 개방화장실,서울 송파구 신천동 19,0,0,:~:,37.5176204,127.1124149,0,0
올림픽공원-제2체육관 펜싱 개방화장실,서울 송파구 방이동 88,0,0,:~:,37.51694266,127.1259922,0,0
올림픽공원-만남의광장 A2동 개방화장실,서울 송파구 방이동 88,0,0,:~:,37.51674467,127.1291138,0,0
올림픽공원역 개방화장실,서울 송파구 방이동 89-11,0,0,:~:,37.5157262,127.1310621,0,0
올림픽공원-장미 개방화장실,서울 송파구 방이동 88,0,0,:~:,37.51404789,127.1275302,0,0
방이역 개찰구 밖 개방화장실,서울 송파구 방이동 217-2,0,0,:~:,37.50855628,127.1258378,0,0
올림픽공원 지구촌 개방화장실,서울 송파구 방이동 88,0,0,:~:,37.51689611,127.1214064,0,0
올림픽프라자상가 개방화장실,서울 송파구 방이동 89-11,0,0,:~:,37.51547498,127.1317257,0,0
오륜동주민센터 개방화장실,서울 송파구 방이동 89-10,0,0,:~:,37.51541626,127.1342604,0,0
신월공원 개방화장실,서울 양천구 신월동 987-2,0,0,:~:,37.51801921,126.8338179,0,0
한빛종합사회복지관 개방화장실,서울 양천구 신월동 540-1,0,0,:~:,37.51903448,126.8402374,0,0
계남근린공원 D 개방화장실,서울 양천구 신정동 521,0,0,:~:,37.51537826,126.8506006,0,0
현승빌딩 개방화장실,서울 양천구 신정동 128-113,0,0,:~:,37.51865811,126.8739506,0,0
문래공원 개방화장실,서울 영등포구 문래동3가 61,0,0,:~:,37.51673519,126.893939,0,0
문래역 개방화장실,서울 영등포구 문래동3가 68-1,0,0,:~:,37.51791803,126.8947484,0,0
화일주유소 개방화장실,서울 영등포구 문래동2가 1,0,0,:~:,37.51325959,126.8965002,0,0
견인차량보관소공영 개방화장실,서울 영등포구 문래동3가 60-2,0,0,:~:,37.51532408,126.8937872,0,0
보라주유소 개방화장실,서울 영등포구 신길동 70-1,0,0,:~:,37.51355356,126.9227232,0,0
대방역 개방화장실,서울 영등포구 신길동 1368-3,0,0,:~:,37.51339761,126.9268462,0,0
노량진근린공원 화장실,서울 동작구 대방동 519,0,0,:~:,37.50976197,126.9281742,0,0
샛강역 9호선 개방화장실,서울 영등포구 여의도동 5-6,0,0,:~:,37.51662455,126.929059,0,0
자매근린공원 개방화장실,서울 영등포구 여의도동 56,0,0,:~:,37.51798081,126.9310101,0,0
한강공원이촌7 개방화장실,서울 용산구 용산동6가 452-1,0,0,:~:,37.515823,126.9836359,0,0
금강아산병원 1층 개방화장실,서울 용산구 이촌동 301-165,0,0,:~:,37.5176356,126.9821231,0,0
금강아산병원 지하층 개방화장실,서울 용산구 이촌동 301-165,0,0,:~:,37.51762477,126.9820009,0,0
금강아산병원 2층 개방화장실,서울 용산구 이촌동 301-165,0,0,:~:,37.51761396,126.9819874,0,0
금강아산병원 3층 개방화장실,서울 용산구 이촌동 301-165,0,0,:~:,37.51762477,126.9819693,0,0
논현2문화센터 개방화장실,서울 강남구 논현동 114-24,0,0,:~:,37.51727071,127.0371698,0,0
청담평생학습관 개방화장실,서울 강남구 청담동 35-10,0,0,:~:,37.51910187,127.0464238,0,0
강남구청 삼성로별관 개방화장실,서울 강남구 삼성동 66,0,0,:~:,37.51590995,127.0521228,0,0
GS칼텍스삼성로점 개방화장실,서울 강남구 삼성동 119-18,0,0,:~:,37.51185841,127.0535225,0,0
서울선릉과정릉 화장실,서울 강남구 삼성동 135-4,0,0,:~:,37.50755972,127.05147,0,0
삼성경로당 개방화장실,서울 강남구 삼성동 100-8,0,0,:~:,37.51652686,127.0653576,0,0
만남의 광장 개방화장실,서울 송파구 잠실동 1-1,0,0,:~:,37.51826994,127.0844035,0,0
향군타워B동 개방화장실,서울 송파구 신천동 7-13,0,0,:~:,37.51631305,127.1004149,0,0
잠실역 개찰구 밖 개방화장실,서울 송파구 신천동 8,0,0,:~:,37.51357115,127.1005843,0,0
장미상가 A 개방화장실,서울 송파구 신천동 7,0,0,:~:,37.5173994,127.1007172,0,0
에코(ECO)샤워부스,경기 부천시 내동 30-3,0,0,:~:,37.51808183,126.7734032,0,0
남부순환셀프주유소 개방화장실,서울 양천구 신월동 525-1,0,0,:~:,37.51959839,126.8388199,0,0
진우에너지 신월점 개방화장실,서울 양천구 신월동 534-24,0,0,:~:,37.52004601,126.8440575,0,0
양천근린공원 책쉼터 개방화장실,서울 양천구 신정동 320,0,0,:~:,37.51828323,126.8681144,0,0
한사랑교회 개방화장실,서울 양천구 신정동 324-1,0,0,:~:,37.51459108,126.8596602,0,0
해누리타운 개방화장실,서울 양천구 신정동 322-11,0,0,:~:,37.51590614,126.8639289,0,0
양천구민체육센터 개방화장실,서울 양천구 신정동 322-10,0,0,:~:,37.51639162,126.8645705,0,0
양천문화회관 개방화장실,서울 양천구 신정동 322,0,0,:~:,37.51629099,126.863254,0,0
신정제7동주민센터 개방화장실,서울 양천구 신정동 324-5,0,0,:~:,37.51438928,126.8596753,0,0
신길역 개방화장실,서울 영등포구 영등포동1가 35,0,0,:~:,37.51763518,126.9149728,0,0
영등포공원 개방화장실,서울 영등포구 영등포동 582-3,0,0,:~:,37.51575909,126.912224,0,0
노량진119안전센터 개방화장실,서울 동작구 노량진동 153-18,0,0,:~:,37.51363899,126.9469196,0,0
한강공원이촌10 개방화장실,서울 용산구 이촌동 302-17,0,0,:~:,37.51789279,126.9706191,0,0
한강공원이촌11 개방화장실,서울 용산구 이촌동 302-17,0,0,:~:,37.51783693,126.970618,0,0
한강공원이촌5 개방화장실,서울 용산구 서빙고동 271-93,0,0,:~:,37.51894322,126.9933577,0,0
서빙고역 개방화장실,서울 용산구 서빙고동 241-11,0,0,:~:,37.51965202,126.9893747,0,0
한강공원잠원8 개방화장실,서울 서초구 잠원동 121,0,0,:~:,37.51798081,127.0088446,0,0
잠실실내체육관 매표소 앞 개방화장실,서울 송파구 잠실동 10,0,0,:~:,37.51571269,127.0767813,0,0
잠실주경기장 개방화장실,서울 송파구 잠실동 10,0,0,:~:,37.51571049,127.0745756,0,0
잠실보조경기장 개방화장실,서울 송파구 잠실동 10,0,0,:~:,37.51712192,127.0709053,0,0
잠실실내체육관 개방화장실,서울 송파구 잠실동 10,0,0,:~:,37.51564064,127.0767315,0,0
제1수영장 외부 개방화장실,서울 송파구 잠실동 10,0,0,:~:,37.51434953,127.0752789,0,0
잠실실내체육관 나들목 앞 개방화장실,서울 송파구 잠실동 10,0,0,:~:,37.5157141,127.0745779,0,0
제1수영장 개방화장실,서울 송파구 잠실동 10,0,0,:~:,37.5142756,127.0753592,0,0
제2수영장 체육공원 풋살경기장앞 개방화장실,서울 송파구 잠실동 10,0,0,:~:,37.51358891,127.0755553,0,0
올림픽공원-88호수 개방화장실,서울 송파구 방이동 88,0,0,:~:,37.52020725,127.1257511,0,0
해맞이역사도서관 개방화장실,서울 양천구 신월동 987,0,0,:~:,37.51905784,126.8355915,0,0
해맞이공영주차장 개방화장실,서울 양천구 신월동 987,0,0,:~:,37.52044037,126.8345783,0,0
시설녹지 신정3호 개방화장실,서울 양천구 신정동 1032-14,0,0,:~:,37.51872136,126.8537794,0,0
목동뉴프라자 상가 개방화장실,서울 양천구 신정동 1267,0,0,:~:,37.51330581,126.8555578,0,0
신월종합사회복지관 개방화장실,서울 양천구 신월동 1063-1,0,0,:~:,37.52003231,126.8473652,0,0
나눔누리센터 개방화장실,서울 양천구 신정동 1032-12,0,0,:~:,37.51879791,126.8537566,0,0
강서수도사업소 청사 개방화장실,서울 양천구 신정동 319-15,0,0,:~:,37.51957256,126.8697411,0,0
영등포소방서 개방화장실,서울 영등포구 영등포동4가 99,0,0,:~:,37.51840627,126.90415,0,0
노량진역 1호선 개방화장실,서울 동작구 노량진동 67-2,0,0,:~:,37.51408014,126.9423519,0,0
한강공원여의도1 개방화장실,서울 영등포구 여의도동 70-1,0,0,:~:,37.5192912,126.9416421,0,0
강남보건소별관 개방화장실,서울 강남구 삼성동 8,0,0,:~:,37.51648345,127.0418886,0,0
청담공원 개방화장실,서울 강남구 청담동 66-3,0,0,:~:,37.52054805,127.0527029,0,0
봉은사 해우소,서울 강남구 삼성동 73,0,0,:~:,37.5151792,127.057995,0,0
올림픽공원-구립SOMA미술관 개방화장실,서울 송파구 방이동 88-21,0,0,:~:,37.51692908,127.1182098,0,0
올림픽공원-평화A2 개방화장실,서울 송파구 방이동 88,0,0,:~:,37.51803339,127.1167207,0,0
올림픽공원 평화A1 개방화장실,서울 송파구 방이동 88,0,0,:~:,37.51865726,127.1163382,0,0
올림픽파크리움 개방화장실,서울 송파구 방이동 51,0,0,:~:,37.51547257,127.1150596,0,0
방이119안전센터 개방화장실,서울 송파구 방이동 89-3,0,0,:~:,37.51973846,127.1365396,0,0
신월제7동주민센터 개방화장실,서울 양천구 신월동 962-10,0,0,:~:,37.52187857,126.8347279,0,0
오솔길공원 개방화장실,서울 양천구 신월동 977,0,0,:~:,37.52126141,126.836684,0,0
신트리공원 개방화장실,서울 양천구 신정동 310-7,0,0,:~:,37.51460529,126.856484,0,0
양천구 보건소 개방화장실,서울 양천구 신정동 321-5,0,0,:~:,37.51762929,126.8658804,0,0
양천생활안전체험교육관 개방화장실,서울 양천구 신정동 322,0,0,:~:,37.51649951,126.863593,0,0
양천구의회 개방화장실,서울 양천구 신정동 321-1,0,0,:~:,37.51767939,126.866369,0,0
우리은행영등포중앙지점 개방화장실,서울 영등포구 영등포동4가 142,0,0,:~:,37.51988253,126.9035587,0,0
홍익금융프라자 개방화장실,서울 영등포구 영등포동4가 147-1,0,0,:~:,37.52000818,126.9029613,0,0
영등포로타리 지하상가 개방화장실,서울 영등포구 영등포동3가 32,0,0,:~:,37.51820119,126.9057101,0,0
영등포전통시장 구동부상가 개방화장실,서울 영등포구 영등포동2가 335,0,0,:~:,37.51986827,126.9082872,0,0
삼보빌딩 개방화장실,서울 영등포구 영등포동1가 143-3,0,0,:~:,37.516975,126.909259,0,0
여의동 주민센터 개방화장실,서울 영등포구 여의도동 53-22,0,0,:~:,37.51769092,126.9345871,0,0
기독교TV멀티미디어센타 개방화장실,서울 동작구 노량진동 27-2,0,0,:~:,37.51294574,126.9369801,0,0
행진빌딩 개방화장실,서울 영등포구 여의도동 53-1,0,0,:~:,37.51896781,126.9332749,0,0
용산가족공원 화장실,서울 용산구 용산동6가 93-8,0,0,:~:,37.52013348,126.9841632,0,0
용산공원야외광장 개방화장실,서울 용산구 용산동6가 68-90,0,0,:~:,37.5211859,126.9845566,0,0
서빙고소방서 개방화장실,서울 용산구 서빙고동 122-6,0,0,:~:,37.5208228,126.9949865,0,0
한강공원잠원7 개방화장실,서울 서초구 잠원동 121-8,0,0,:~:,37.52050063,127.0120756,0,0
청담도로공원 화장실,서울 강남구 삼성동 81,0,0,:~:,37.5203338,127.0633383,0,0
청담도로공원 개방화장실,서울 강남구 삼성동 80,0,0,:~:,37.52078005,127.0628591,0,0
강동송파교육지원청 개방화장실,서울 송파구 잠실동 22-3,0,0,:~:,37.51447522,127.0888965,0,0
한강공원잠실6 개방화장실,서울 송파구 잠실동 1-1,0,0,:~:,37.51772776,127.0815105,0,0
한강공원잠실4 개방화장실,서울 송파구 잠실동 1-1,0,0,:~:,37.51800303,127.089584,0,0
잠실3동주민센터 개방화장실,서울 송파구 잠실동 27-4,0,0,:~:,37.51324919,127.0943945,0,0
방이2동주민센터 개방화장실,서울 송파구 방이동 41-8,0,0,:~:,37.51642402,127.1113023,0,0
한국체육대학교 본관 개방화장실,서울 송파구 방이동 88-15,0,0,:~:,37.51988621,127.1309868,0,0
한국체육대학교 과학관 개방화장실,서울 송파구 방이동 88-15,0,0,:~:,37.51903338,127.129792,0,0
한국체육대학교 승리관 개방화장실,서울 송파구 방이동 88-15,0,0,:~:,37.52046987,127.1295275,0,0
한국체육대학교 수영장 개방화장실,서울 송파구 방이동 88-15,0,0,:~:,37.5193892,127.1298604,0,0
한국체육대학교 학생회관 개방화장실,서울 송파구 방이동 88-15,0,0,:~:,37.51985083,127.1320116,0,0
은데미공원 공중화장실,경기 부천시 원종동 226-8,0,0,:~:,37.52122578,126.8104218,0,0
온수도시자연공원 지양산 유아숲체험원 개방화장실,서울 양천구 신월동 331-5,0,0,:~:,37.52132272,126.8296986,0,0
양지공원 개방화장실,서울 양천구 신월동 936,0,0,:~:,37.522194,126.8309625,0,0
양천근린공원 키지트 개방화장실,서울 양천구 신정동 320,0,0,:~:,37.51828049,126.8680861,0,0
억새2축구장 개방화장실,서울 영등포구 문래동6가 45,0,0,:~:,37.52038479,126.8821512,0,0
의성기계담장 개방화장실,서울 영등포구 문래동6가 26,0,0,:~:,37.52056942,126.8866757,0,0
오목교 개방화장실,서울 영등포구 양평동 492,0,0,:~:,37.52318479,126.8809432,0,0
SK신목동셀프주유소 개방화장실,서울 양천구 신정동 296-5,0,0,:~:,37.51957491,126.87106,0,0
샛강생태공원 화장실,서울 영등포구 여의도동 19-1,0,0,:~:,37.52151415,126.916448,0,0
한강공원여의도21 개방화장실,서울 영등포구 여의도동 19-1,0,0,:~:,37.52148721,126.9165635,0,0
신길환승 5호선 공영 개방화장실,서울 영등포구 영등포동1가 35,0,0,:~:,37.51763827,126.9142489,0,0
백영신사빌딩 개방화장실,서울 강남구 신사동 630-19,0,0,:~:,37.52227377,127.0348782,0,0
보전빌딩 개방화장실,서울 강남구 논현동 70-13,0,0,:~:,37.51928258,127.0344243,0,0
강남구청 제3별관 개방화장실,서울 강남구 삼성동 16-1,0,0,:~:,37.51796637,127.0470385,0,0
재너머경로당 개방화장실,서울 강남구 청담동 16-16,0,0,:~:,37.52062352,127.044461,0,0
강남구보훈회관 개방화장실,서울 강남구 삼성동 20-2,0,0,:~:,37.51632525,127.0501865,0,0
한강공원잠실9 개방화장실,서울 송파구 잠실동 1-1,0,0,:~:,37.51868806,127.0749666,0,0
한강공원잠실7 개방화장실,서울 송파구 잠실동 1-1,0,0,:~:,37.51787893,127.0791635,0,0
장수공원 개방화장실,서울 양천구 신월동 894,0,0,:~:,37.52257254,126.8497107,0,0
한강공원여의도22 개방화장실,서울 영등포구 여의도동 4-9,0,0,:~:,37.51882294,126.9218332,0,0
한강공원여의도9 개방화장실,서울 영등포구 여의도동 4-9,0,0,:~:,37.51882577,126.9220232,0,0
여의도우체국 개방화장실,서울 영등포구 여의도동 35-1,0,0,:~:,37.52232533,126.9263318,0,0
한강공원여의도2 개방화장실,서울 영등포구 여의도동 86-7,0,0,:~:,37.52171034,126.9415429,0,0
한강공원여의도3 개방화장실,서울 영등포구 여의도동 86-5,0,0,:~:,37.52336546,126.9397078,0,0
덕산빌딩 개방화장실,서울 강남구 신사동 528-3,0,0,:~:,37.5228826,127.0205841,0,0
한강공원잠실5 개방화장실,서울 송파구 잠실동 1-1,0,0,:~:,37.5182366,127.0844012,0,0
신정주유소 개방화장실,서울 양천구 신정동 943-19,0,0,:~:,37.52313048,126.8520241,0,0
타이거오일 신정주유소 개방화장실,서울 양천구 신정동 1052-12,0,0,:~:,37.51685199,126.8546834,0,0
신정네거리역 개방화장실,서울 양천구 신정동 1231,0,0,:~:,37.52006097,126.8529091,0,0
양천공원 개방화장실,서울 양천구 신정동 320,0,0,:~:,37.51807894,126.8683274,0,0
영신상가 개방화장실,서울 영등포구 영등포동5가 18-1,0,0,:~:,37.51988498,126.906613,0,0
조광시장 개방화장실,서울 영등포구 당산동1가 186-24,0,0,:~:,37.52252939,126.901044,0,0
영등포동제1공영 개방화장실,서울 영등포구 영등포동2가 230,0,0,:~:,37.52082839,126.9101774,0,0
영등포동주민센터 개방화장실,서울 영등포구 영등포동2가 222-2,0,0,:~:,37.52033861,126.9106576,0,0
여의도공원 2호 개나리 개방화장실,서울 영등포구 여의도동 2,0,0,:~:,37.52477777,126.9190165,0,0
한강공원잠원6 개방화장실,서울 강남구 압구정동 386-1,0,0,:~:,37.52431141,127.015918,0,0
도산공원 개방화장실,서울 강남구 신사동 649-9,0,0,:~:,37.52414747,127.0361913,0,0
경원주유소 개방화장실,서울 강남구 청담동 3-6,0,0,:~:,37.52325869,127.0427385,0,0
배강빌딩 개방화장실,서울 강남구 신사동 666-11,0,0,:~:,37.5235015,127.0388517,0,0
압구정노인복지센터 개방화장실,서울 강남구 신사동 652-13,0,0,:~:,37.52353417,127.0381548,0,0
한강공원잠실10 개방화장실,서울 송파구 잠실동 1-1,0,0,:~:,37.51885321,127.0745572,0,0
한강공원잠실2 개방화장실,서울 송파구 신천동 1,0,0,:~:,37.52002661,127.0954301,0,0
한강공원잠실3 개방화장실,서울 송파구 잠실동 1-1,0,0,:~:,37.519583,127.093571,0,0
한강고수부지공원 화장실,서울 송파구 신천동 1-1,0,0,:~:,37.52255068,127.0993633,0,0
시그마타워 개방화장실,서울 송파구 신천동 7-19,0,0,:~:,37.5145074,127.1025491,0,0
올림픽공원-토성 개방화장실,서울 송파구 방이동 88,0,0,:~:,37.52109609,127.1210083,0,0
잠실벨솔레오피스텔 개방화장실,서울 송파구 방이동 41-8,0,0,:~:,37.51648156,127.1114325,0,0
송파구여성축구장 개방화장실,서울 송파구 방이동 88,0,0,:~:,37.52444332,127.1183348,0,0
올림픽공원-북2문 개방화장실,서울 송파구 방이동 88,0,0,:~:,37.52269005,127.126934,0,0
GS칼텍스 신월주유소 개방화장실,서울 강동구 성내동 439-16,0,0,:~:,37.52453424,127.134408,0,0
한국체육대학교 실내빙상장 개방화장실,서울 송파구 방이동 88-15,0,0,:~:,37.52141441,127.1325099,0,0
무중력지대 양천 개방화장실,서울 양천구 목동 404-1,0,0,:~:,37.52458581,126.8773763,0,0
양평역 개방화장실,서울 영등포구 양평동2가 33-1,0,0,:~:,37.52538824,126.8860168,0,0
우리은행양평빌딩 개방화장실,서울 영등포구 양평동2가 37-2,0,0,:~:,37.52351585,126.8840468,0,0
삼환상가제중한의원 개방화장실,서울 영등포구 양평동1가 245,0,0,:~:,37.52287066,126.8877085,0,0
여의도 119안전센터 개방화장실,서울 영등포구 여의도동 48-3,0,0,:~:,37.51722214,126.9279454,0,0
미성상가 개방화장실,서울 강남구 압구정동 415,0,0,:~:,37.52483163,127.0196377,0,0
원앙빌딩 한국마사회강남지점 개방화장실,서울 강남구 청담동 125-17,0,0,:~:,37.52508612,127.051301,0,0
청담역 개방화장실,서울 강남구 청담동 77-76,0,0,:~:,37.51913648,127.0520221,0,0
삼익쇼핑 개방화장실,서울 강남구 청담동 134-20,0,0,:~:,37.52243787,127.057607,0,0
극동스포츠빌딩 개방화장실,서울 강남구 신사동 575,0,0,:~:,37.52555931,127.0260285,0,0
새서울석유 새서울주유소 개방화장실,서울 강남구 신사동 575-1,0,0,:~:,37.5258367,127.0265445,0,0
압구정1동경로당 개방화장실,서울 강남구 신사동 627-2,0,0,:~:,37.5239594,127.0322442,0,0
청담경로당 개방화장실,서울 강남구 청담동 94-4,0,0,:~:,37.52517547,127.0442374,0,0
금하빌딩 개방화장실,서울 강남구 청담동 41-2,0,0,:~:,37.51765123,127.0416675,0,0
강남구청 차량지원실 개방화장실,서울 강남구 삼성동 16-1,0,0,:~:,37.51796637,127.0470385,0,0
한국체육대학교 필승관 개방화장실,서울 송파구 방이동 88-15,0,0,:~:,37.52075703,127.1313877,0,0
영송빌딩 개방화장실,서울 양천구 신정동 981-16,0,0,:~:,37.52198602,126.8584925,0,0
신신코아빌딩 개방화장실,서울 양천구 신정동 1013-7,0,0,:~:,37.52225028,126.8609897,0,0
개울건강도서관 개방화장실,서울 양천구 신정동 915-2,0,0,:~:,37.525977,126.8566149,0,0
교육시설공제회관 구-인켈 개방화장실,서울 영등포구 여의도동 17-10,0,0,:~:,37.52631917,126.9176961,0,0
여의도공원 7호 은방울 개방화장실,서울 영등포구 여의도동 2,0,0,:~:,37.52423128,126.9209176,0,0
여의도공원 화장실,서울 영등포구 여의도동 2,0,0,:~:,37.52423105,126.9209158,0,0
용산가족공원 화장실2,서울 용산구 용산동6가 68-92,0,0,:~:,37.5223247,126.9840677,0,0
이촌역 개방화장실,서울 용산구 용산동5가 17-27,0,0,:~:,37.52226451,126.9747192,0,0
국립중앙박물관 화장실,서울 용산구 용산동6가 168-6,0,0,:~:,37.5249511,126.9782479,0,0
이촌로 개방화장실,서울 용산구 한강로3가 40-900,0,0,:~:,37.52304471,126.961204,0,0
용산세무서 개방화장실,서울 용산구 한강로3가 65-342,0,0,:~:,37.52314706,126.9691396,0,0
한강공원이촌14 개방화장실,서울 용산구 이촌동 375-1,0,0,:~:,37.52174606,126.9602669,0,0
청소년수련원 샤워실 개방화장실,서울 용산구 이촌동 301-82,0,0,:~:,37.52125147,126.9733361,0,0
한강공원이촌13 개방화장실,서울 용산구 이촌동 361-1,0,0,:~:,37.52070997,126.963247,0,0
한강공원이촌12 개방화장실,서울 용산구 이촌동 360,0,0,:~:,37.51983938,126.9655132,0,0
이촌역 경의중앙선 개방화장실,서울 용산구 용산동5가 17-98,0,0,:~:,37.52233186,126.973726,0,0
이촌1동주민센터 개방화장실,서울 용산구 이촌동 301-82,0,0,:~:,37.52132804,126.9732399,0,0
한강공원잠실1 개방화장실,서울 송파구 신천동 1-1,0,0,:~:,37.52255789,127.0993633,0,0
우성상가 개방화장실,서울 양천구 신월동 928-1,0,0,:~:,37.52265453,126.8335848,0,0
아동어린이공원 개방화장실,서울 양천구 신월동 922-1,0,0,:~:,37.52302567,126.8335308,0,0
신월야구공원 개방화장실,서울 양천구 신월동 149-20,0,0,:~:,37.52648459,126.8322425,0,0
신양주유소 개방화장실,서울 양천구 신월동 951-4,0,0,:~:,37.52151968,126.8338757,0,0
오목공원 개방화장실,서울 양천구 목동 921,0,0,:~:,37.52799536,126.8732697,0,0
양평동2가-1 개방화장실,서울 영등포구 양평동2가 31-1,0,0,:~:,37.52441401,126.8848328,0,0
영등포시장역 개방화장실,서울 영등포구 영등포동5가 62-1,0,0,:~:,37.52272361,126.9049488,0,0
9호선국회의사당역 내부 개방화장실,서울 영등포구 여의도동 1-6,0,0,:~:,37.52806003,126.9178662,0,0
2호매점 개방화장실,서울 영등포구 여의도동 85,0,0,:~:,37.52676973,126.9335146,0,0
한강공원여의도4 개방화장실,서울 영등포구 여의도동 85,0,0,:~:,37.52493207,126.9375289,0,0
여의나루역 개방화장실,서울 영등포구 여의도동 84-4,0,0,:~:,37.5270802,126.9328457,0,0
청소년수련원 지하1층 개방화장실,서울 용산구 이촌동 301-82,0,0,:~:,37.52138482,126.9733112,0,0
청소년수련원 지하2층 개방화장실,서울 용산구 이촌동 301-82,0,0,:~:,37.52135328,126.9732999,0,0
압구정빌딩 개방화장실,서울 강남구 신사동 599,0,0,:~:,37.52403329,127.0287091,0,0
한국국제예술원 개방화장실,서울 강남구 신사동 640-2,0,0,:~:,37.52785236,127.0362791,0,0
압구정로데오역 분당선 개방화장실,서울 강남구 압구정동 495,0,0,:~:,37.52710136,127.0404679,0,0
한양타운 개방화장실,서울 강남구 신사동 665-1,0,0,:~:,37.52559526,127.0393732,0,0
청수경로당 개방화장실,서울 강남구 청담동 112-26,0,0,:~:,37.52742041,127.0496736,0,0
강남구청 본관동 개방화장실,서울 강남구 삼성동 16-1,0,0,:~:,37.51732021,127.0473774,0,0
잠실세무서 개방화장실,서울 송파구 풍납동 388-6,0,0,:~:,37.52639725,127.1141069,0,0
신월2동주민센터 개방화장실,서울 양천구 신월동 483-11,0,0,:~:,37.52499138,126.8445721,0,0
안양천 영학정앞 개방화장실,서울 양천구 목동 409-379,0,0,:~:,37.52709813,126.8794504,0,0
GS칼텍스 직영 한양점 개방화장실,서울 영등포구 영등포동7가 94-160,0,0,:~:,37.52548679,126.9081083,0,0
성실통운 개방화장실,서울 양천구 신월동 244-1,0,0,:~:,37.52652118,126.8371386,0,0
지우빌딩 개방화장실,서울 양천구 신월동 439-17,0,0,:~:,37.52154528,126.8393553,0,0
GS칼텍스 국회대로주유소 개방화장실,서울 영등포구 여의도동 17-2,0,0,:~:,37.52799475,126.9160086,0,0
9호선국회의사당역 외부 개방화장실,서울 영등포구 여의도동 1-6,0,0,:~:,37.52806273,126.9178673,0,0
한강공원여의도6 개방화장실,서울 영등포구 여의도동 85-6,0,0,:~:,37.52761272,126.9345049,0,0
한강공원여의도5 개방화장실,서울 영등포구 여의도동 85,0,0,:~:,37.52513302,126.9375796,0,0
이촌동헬스장 개방화장실,서울 용산구 이촌동 206-2,0,0,:~:,37.52628148,126.9546578,0,0
한석주유소,서울 용산구 이촌동 302-79,0,0,:~:,37.52147015,126.9653711,0,0
한강공원이촌15 개방화장실,서울 용산구 이촌동 321-1,0,0,:~:,37.52830878,126.952472,0,0
대동석유 압구정주유소 개방화장실,서울 강남구 신사동 633,0,0,:~:,37.52534471,127.03378,0,0
한강공원뚝섬2 개방화장실,서울 광진구 자양동 704-6,0,0,:~:,37.52727723,127.0844442,0,0
성내3동주민센터 개방화장실,서울 강동구 성내동 430-29,0,0,:~:,37.52603885,127.1328676,0,0
둔촌역재래시장 개방화장실,서울 강동구 성내동 416-13,0,0,:~:,37.52798588,127.1352785,0,0
둔촌동역 개방화장실,서울 강동구 둔촌동 416,0,0,:~:,37.52813241,127.1363513,0,0
서서울호수공원 정문 개방화장실,서울 양천구 신월동 149-20,0,0,:~:,37.52886189,126.8313004,0,0
SK에너지 경인주유소 개방화장실,서울 양천구 신정동 872-5,0,0,:~:,37.5281567,126.8538243,0,0
신정종합사회복지관 개방화장실,서울 양천구 신정동 919-6,0,0,:~:,37.52729938,126.8556395,0,0
하나biz타워 개방화장실,서울 영등포구 당산동2가 37,0,0,:~:,37.52206483,126.8931758,0,0
당중초교 뒤 개방화장실,서울 영등포구 양평동3가 49-4,0,0,:~:,37.52669368,126.8906622,0,0
송파어린이영어도서관 개방화장실,서울 송파구 신천동 14,0,0,:~:,37.52252415,127.1019402,0,0
잠실나루역 개찰구 밖 개방화장실,서울 송파구 신천동 15,0,0,:~:,37.5205033,127.1039035,0,0
롯데캐슬프라자 개방화장실,서울 송파구 신천동 7-18,0,0,:~:,37.51442618,127.1006103,0,0
국민연금본부회관 개방화장실,서울 송파구 신천동 7-16,0,0,:~:,37.51570357,127.1008835,0,0
송파세무서 개방화장실,서울 송파구 풍납동 388-6,0,0,:~:,37.52661512,127.1133425,0,0
소나무언덕1호작은도서관 개방화장실,서울 송파구 풍납동 401-1,0,0,:~:,37.52732413,127.1180271,0,0
잠실4동주민센터 개방화장실,서울 송파구 신천동 20-5,0,0,:~:,37.5201605,127.1122309,0,0
아산병원 동관 개방화장실,서울 송파구 풍납동 388-1,0,0,:~:,37.52675858,127.1083276,0,0
강동소방서 개방화장실,서울 강동구 성내동 541,0,0,:~:,37.52926581,127.1250128,0,0
몽촌역사관 개방화장실,서울 송파구 방이동 88,0,0,:~:,37.52389839,127.1243047,0,0
덕산어린이공원 화장실,경기 부천시 오정동 114-7,0,0,:~:,37.52910888,126.7918389,0,0
오정대공원 화장실,경기 부천시 오정동 1-3,0,0,:~:,37.52963991,126.7946115,0,0
현대드림타워 개방화장실,서울 양천구 목동 923-14,0,0,:~:,37.52747545,126.8715691,0,0
목동역 개방화장실,서울 양천구 목동 926-3,0,0,:~:,37.52619289,126.8647225,0,0
현대41타워 개방화장실,서울 양천구 목동 917-9,0,0,:~:,37.52815119,126.8757731,0,0
오목교역 개방화장실,서울 양천구 목동 406-30,0,0,:~:,37.52444762,126.8753403,0,0
목동테니스장 개방화장실,서울 양천구 목동 915,0,0,:~:,37.52784155,126.8777896,0,0
영등포침례교회 개방화장실,서울 영등포구 영등포동6가 36,0,0,:~:,37.52209577,126.9040265,0,0
당산공원 화장실,서울 영등포구 당산동3가 385,0,0,:~:,37.52525974,126.8951396,0,0
동양웨딩홀 개방화장실,서울 영등포구 당산동4가 93-6,0,0,:~:,37.52951246,126.8951292,0,0
태창빌딩 개방화장실,서울 영등포구 당산동2가 45-9,0,0,:~:,37.52172974,126.8952803,0,0
영등포구청역 개방화장실,서울 영등포구 당산동3가 556-1,0,0,:~:,37.5244157,126.8943444,0,0
목동빙상장 개방화장실,서울 양천구 목동 914,0,0,:~:,37.5302722,126.8792982,0,0
우신빌딩 개방화장실,서울 영등포구 양평동2가 21,0,0,:~:,37.52290624,126.8835093,0,0
신용산역 개방화장실,서울 용산구 한강로2가 412,0,0,:~:,37.52984323,126.9688156,0,0
한강로동 주민센터 개방화장실,서울 용산구 한강로2가 187-3,0,0,:~:,37.5281314,126.9691014,0,0
용산역 개방화장실,서울 용산구 한강로3가 40-999,0,0,:~:,37.53006916,126.9648195,0,0
용산우체국 개방화장실,서울 용산구 한강로2가 142,0,0,:~:,37.52998216,126.9695147,0,0
한강공원이촌3 개방화장실,서울 용산구 한남동 782-2,0,0,:~:,37.5285848,127.007598,0,0
한남역 개방화장실,서울 용산구 한남동 399-7,0,0,:~:,37.52935324,127.0090779,0,0
정겨운마을마당 개방화장실,서울 용산구 한남동 524-6,0,0,:~:,37.5303553,127.0070325,0,0
한강공원잠원5 개방화장실,서울 강남구 압구정동 386,0,0,:~:,37.52624289,127.0178326,0,0
보광시장 개방화장실,서울 용산구 보광동 260-8,0,0,:~:,37.52718759,127.000267,0,0
한강공원잠원2 개방화장실,서울 강남구 압구정동 376-2,0,0,:~:,37.53122182,127.042536,0,0
한강공원뚝섬8 개방화장실,서울 광진구 자양동 435,0,0,:~:,37.5287193,127.0729198,0,0
한강공원뚝섬13 개방화장실,서울 광진구 자양동 97-5,0,0,:~:,37.53025567,127.0665507,0,0
뚝섬한강공원 화장실5,서울 광진구 자양동 112,0,0,:~:,37.53013349,127.0690667,0,0
한강공원뚝섬11 개방화장실,서울 광진구 자양동 112,0,0,:~:,37.52987194,127.0663648,0,0
한강공원뚝섬10 개방화장실,서울 광진구 자양동 112,0,0,:~:,37.53009021,127.0691232,0,0
한강공원뚝섬1 개방화장실,서울 광진구 자양동 753-1,0,0,:~:,37.52860903,127.0879879,0,0
장호셀프주유소 개방화장실,서울 광진구 자양동 677-5,0,0,:~:,37.53127938,127.0858301,0,0
금모래공원 개방화장실,서울 광진구 자양동 651-50,0,0,:~:,37.53021132,127.0825661,0,0
한강공원뚝섬3 개방화장실,서울 광진구 자양동 94,0,0,:~:,37.52715465,127.0806338,0,0
뚝섬한강공원 화장실2,서울 광진구 자양동 558-3,0,0,:~:,37.52780711,127.0777531,0,0
자양2동 주민센터 개방화장실,서울 광진구 자양동 669-2,0,0,:~:,37.52880086,127.0843882,0,0
뚝섬한강공원 화장실1,서울 광진구 자양동 94,0,0,:~:,37.52717447,127.080644,0,0
뚝섬 한강공원 화장실9,서울 광진구 자양동 112,0,0,:~:,37.5300947,127.0675869,0,0
한강공원뚝섬12 개방화장실,서울 광진구 자양동 112,0,0,:~:,37.53012595,127.0665031,0,0
한강공원뚝섬9 개방화장실,서울 광진구 자양동 427-13,0,0,:~:,37.52906216,127.0721486,0,0
화곡제1동 주민센터 개방화장실,서울 강서구 화곡동 425-4,0,0,:~:,37.53047811,126.8415842,0,0
신화곡주유소 개방화장실,서울 강서구 화곡동 931-11,0,0,:~:,37.52725605,126.8428705,0,0
한국소방안전협회 개방화장실,서울 영등포구 영등포동8가 87-4,0,0,:~:,37.53158694,126.9062861,0,0
당산2동공영 개방화장실,서울 영등포구 당산동 121-105,0,0,:~:,37.52823638,126.9077701,0,0
두레교회 개방화장실,서울 영등포구 당산동 121-156,0,0,:~:,37.52653315,126.9096728,0,0
여의도공원 6호 봉선화호장실 개방화장실,서울 영등포구 여의도동 2,0,0,:~:,37.52773067,126.9262672,0,0
마포대교 개방화장실,서울 영등포구 여의도동 84-6,0,0,:~:,37.53135612,126.9324527,0,0
한강공원여의도7 개방화장실,서울 영등포구 여의도동 85-6,0,0,:~:,37.52748753,126.9346023,0,0
한강공원여의도11 개방화장실,서울 영등포구 여의도동 84-4,0,0,:~:,37.52870481,126.9314595,0,0
한강공원여의도10 개방화장실,서울 영등포구 여의도동 84-4,0,0,:~:,37.52881472,126.9314538,0,0
한강공원여의도8 개방화장실,서울 영등포구 여의도동 85-6,0,0,:~:,37.52729659,126.9347303,0,0
철길담장옆 개방화장실,서울 용산구 한강로2가 2-340,0,0,:~:,37.53175604,126.968782,0,0
청소년수련원 2층 개방화장실,서울 용산구 이촌동 301-82,0,0,:~:,37.52132804,126.9732399,0,0
한강공원잠원4 개방화장실,서울 강남구 압구정동 386,0,0,:~:,37.52758229,127.0202573,0,0
한강공원잠원3 개방화장실,서울 강남구 압구정동 386,0,0,:~:,37.52885981,127.0208075,0,0
한강공원잠원1 개방화장실,서울 강남구 청담동 342-2,0,0,:~:,37.52882525,127.0513556,0,0
뚝섬유원지역 개방화장실,서울 광진구 자양동 73-2,0,0,:~:,37.53158005,127.0667012,0,0
뚝섬한강공원 화장실7,서울 광진구 자양동 97-5,0,0,:~:,37.53164336,127.0629813,0,0
한강공원뚝섬14 개방화장실,서울 광진구 자양동 97-5,0,0,:~:,37.5314017,127.0633386,0,0
뚝섬한강공원 화장실6,서울 광진구 자양동 112,0,0,:~:,37.53014218,127.0664827,0,0
한강공원광나루지구 화장실,서울 송파구 신천동 257-1,0,0,:~:,37.52698519,127.1058402,0,0
풍납종합사회복지관 개방화장실,서울 송파구 풍납동 330-1,0,0,:~:,37.52778503,127.1138533,0,0
아산병원 서관 개방화장실,서울 송파구 풍납동 388-1,0,0,:~:,37.52589971,127.1075809,0,0
올림픽공원 피크닉장 개방화장실,서울 송파구 방이동 88,0,0,:~:,37.52441759,127.1232298,0,0
개나리셀프주유소 개방화장실,서울 양천구 신월동 206-1,0,0,:~:,37.52828399,126.8329489,0,0
신월보건지소 개방화장실,서울 양천구 신월동 131-4,0,0,:~:,37.53130158,126.8317746,0,0
현대오일뱅크 직영여의도현대주유소 개방화장실,서울 영등포구 여의도동 13-11,0,0,:~:,37.53072056,126.9203115,0,0
한강공원여의도20 개방화장실,서울 영등포구 여의도동 19-1,0,0,:~:,37.52561453,126.9138257,0,0
용산구종합행정타운 개방화장실,서울 용산구 이태원동 34-87,0,0,:~:,37.53248147,126.9903289,0,0
동도상가 개방화장실,서울 강남구 신사동 660-7,0,0,:~:,37.5282411,127.0378314,0,0
한강공원뚝섬15 개방화장실,서울 광진구 자양동 158-17,0,0,:~:,37.53228166,127.0605256,0,0
한강공원광나루12 개방화장실,서울 송파구 신천동 257-1,0,0,:~:,37.52697617,127.1058447,0,0
안말공영주차장 개방화장실,서울 강동구 성내동 512,0,0,:~:,37.53125355,127.1298991,0,0
한양주유소 개방화장실,서울 강남구 신사동 638,0,0,:~:,37.52886934,127.0341029,0,0
남부골목시장 개방화장실,서울 강서구 화곡동 801-9,0,0,:~:,37.53315935,126.8600146,0,0
GS칼텍스 경인고속주유소 개방화장실,서울 강서구 화곡동 843-4,0,0,:~:,37.52962356,126.8597949,0,0
화곡제2동 주민센터 개방화장실,서울 강서구 화곡동 860-4,0,0,:~:,37.53186243,126.8544823,0,0
뉴신정주유소 개방화장실,서울 강서구 화곡동 862-16,0,0,:~:,37.53157963,126.8560442,0,0
양정주유소 개방화장실,서울 양천구 신정동 872-1,0,0,:~:,37.52805602,126.8525631,0,0
양천구주유소 개방화장실,서울 양천구 목동 804-35,0,0,:~:,37.53027175,126.8655365,0,0
롯데리아 목동사거리점 개방화장실,서울 양천구 목동 792-6,0,0,:~:,37.53256215,126.8640072,0,0
한강공원여의도14 개방화장실,서울 영등포구 여의도동 84-9,0,0,:~:,37.53064187,126.9297788,0,0
이태원1 공중화장실,서울 용산구 이태원동 34-114,0,0,:~:,37.53431939,126.9888669,0,0
이태원1 개방화장실,서울 용산구 이태원동 34-114,0,0,:~:,37.53431667,126.9886655,0,0
이태원1동주민센터 개방화장실,서울 용산구 이태원동 100-3,0,0,:~:,37.5325106,126.9950536,0,0
국제아케이트 개방화장실,서울 용산구 이태원동 58-5,0,0,:~:,37.53401318,126.9903378,0,0
이태원3 공중화장실,서울 용산구 이태원동 72-32,0,0,:~:,37.53416288,126.9922272,0,0
이태원지구대 개방화장실,서울 용산구 이태원동 127-10,0,0,:~:,37.53429455,126.9944063,0,0
압구정역 개방화장실,서울 강남구 신사동 668,0,0,:~:,37.52642551,127.0284611,0,0
성내도서관 개방화장실,서울 강동구 성내동 385,0,0,:~:,37.53292919,127.1333233,0,0
둔촌2동주민센터 개방화장실,서울 강동구 둔촌동 65,0,0,:~:,37.53334443,127.1419318,0,0
성내하니공원 화장실,서울 강동구 성내동 533,0,0,:~:,37.52947331,127.1264432,0,0
강동구청역 개방화장실,서울 송파구 풍납동 504-2,0,0,:~:,37.53046004,127.1202857,0,0
진양주유소 개방화장실,서울 송파구 풍납동 401-6,0,0,:~:,37.52701328,127.1180267,0,0
강동구청 서관 개방화장실,서울 강동구 성내동 540,0,0,:~:,37.53045297,127.1236345,0,0
곰달래지구대 개방화장실,서울 강서구 화곡동 776-4,0,0,:~:,37.53288909,126.8631196,0,0
목동공영주차장 개방화장실,서울 양천구 목동 915,0,0,:~:,37.52693474,126.8782685,0,0
안양천 목동인라인스케이트장 앞 개방화장실,서울 양천구 목동 914,0,0,:~:,37.53071888,126.8790803,0,0
목동축구장 개방화장실,서울 양천구 목동 914,0,0,:~:,37.53121076,126.8825901,0,0
여의도공원 8호 개방화장실,서울 영등포구 여의도동 2,0,0,:~:,37.52595586,126.9237168,0,0
여의도공원 3호 개방화장실,서울 영등포구 여의도동 2,0,0,:~:,37.52589705,126.9209898,0,0
한강공원여의도17 개방화장실,서울 영등포구 여의도동 83-6,0,0,:~:,37.53311989,126.9229746,0,0
한강공원여의도12 개방화장실,서울 영등포구 여의도동 84-4,0,0,:~:,37.52708561,126.9328638,0,0
순천향대학교서울병원 본관1층 개방화장실,서울 용산구 한남동 657-58,0,0,:~:,37.53360623,127.0046795,0,0
한남동주민센터 개방화장실,서울 용산구 한남동 685-37,0,0,:~:,37.53482447,127.0006698,0,0
순천향대학교서울병원 별관1층 개방화장실,서울 용산구 한남동 657-58,0,0,:~:,37.53398466,127.0044668,0,0
순천향대학교서울병원 모자1층 개방화장실,서울 용산구 한남동 657-58,0,0,:~:,37.53383689,127.0043989,0,0
순천향대학교서울병원 모자2층 개방화장실,서울 용산구 한남동 657-58,0,0,:~:,37.53416126,127.004331,0,0
순천향대학교서울병원 본관2층 개방화장실,서울 용산구 한남동 657-58,0,0,:~:,37.53372427,127.0043932,0,0
순천향대학교서울병원 별관2층 개방화장실,서울 용산구 한남동 657-58,0,0,:~:,37.53415675,127.0042745,0,0
금강쇼핑센터 개방화장실,서울 강남구 압구정동 458,0,0,:~:,37.5304238,127.029904,0,0
중산빌딩 개방화장실,서울 강남구 신사동 611,0,0,:~:,37.52709033,127.0289524,0,0
수현민물장어 개방화장실,서울 광진구 자양동 553-56,0,0,:~:,37.53288683,127.0692729,0,0
뚝섬한강공원 화장실4,서울 광진구 자양동 427-22,0,0,:~:,37.52835735,127.0739614,0,0
자연학습장 개방화장실,서울 광진구 자양동 427-22,0,0,:~:,37.52836456,127.0739569,0,0
서울창의마을풍납캠프 개방화장실,서울 송파구 풍납동 281-1,0,0,:~:,37.53227272,127.1131247,0,0
성광교회 개방화장실,서울 송파구 풍납동 405,0,0,:~:,37.52939182,127.1163164,0,0
풍납2동 주민센터 개방화장실,서울 송파구 풍납동 403,0,0,:~:,37.5292203,127.1157324,0,0
일자산약수터 화장실,서울 강동구 둔촌동 6-9,0,0,:~:,37.52897814,127.1492772,0,0
일자산잔디광장옆 화장실,서울 강동구 둔촌동 산 125,0,0,:~:,37.53120405,127.1503541,0,0
일자산약수터 개방화장실,서울 강동구 둔촌동 6-9,0,0,:~:,37.5289457,127.1492816,0,0
